[
  {
    "id": 8602980029,
    "name": "Dog Park",
    "latitude": 64.8395196,
    "longitude": -147.6621616,
    "state": "Alaska",
    "stateAbbr": "AK",
    "tags": {
      "leisure": "dog_park"
    }
  },
  {
    "id": 220386019,
    "name": "Connors Bog Dog Park",
    "latitude": 61.1662425,
    "longitude": -149.9287271,
    "state": "Alaska",
    "stateAbbr": "AK",
    "tags": {
      "access": "yes",
      "boundary": "protected_area",
      "dog": "yes",
      "leisure": "dog_park",
      "name": "Connors Bog Dog Park"
    }
  },
  {
    "id": 468587573,
    "name": "Takhini Outdoor Dog Training Facility",
    "latitude": 60.7356109,
    "longitude": -135.0878963,
    "state": "Alaska",
    "stateAbbr": "AK",
    "tags": {
      "leisure": "dog_park",
      "name": "Takhini Outdoor Dog Training Facility"
    }
  },
  {
    "id": 518421847,
    "name": "Dog Park",
    "latitude": 60.4909027,
    "longitude": -149.8134284,
    "state": "Alaska",
    "stateAbbr": "AK",
    "tags": {
      "leisure": "dog_park"
    }
  },
  {
    "id": 520318852,
    "name": "Dog Park",
    "latitude": 65.5813985,
    "longitude": -171.0078052,
    "state": "Alaska",
    "stateAbbr": "AK",
    "tags": {
      "leisure": "dog_park"
    }
  },
  {
    "id": 520320397,
    "name": "Dog Park",
    "latitude": 65.5873054,
    "longitude": -170.9905481,
    "state": "Alaska",
    "stateAbbr": "AK",
    "tags": {
      "leisure": "dog_park"
    }
  },
  {
    "id": 599920515,
    "name": "Arctic & Benson Dog Park",
    "latitude": 61.1920399,
    "longitude": -149.8973446,
    "state": "Alaska",
    "stateAbbr": "AK",
    "tags": {
      "leisure": "dog_park",
      "name": "Arctic & Benson Dog Park"
    }
  },
  {
    "id": 615377157,
    "name": "Dog Park",
    "latitude": 63.9721638,
    "longitude": -145.7305291,
    "state": "Alaska",
    "stateAbbr": "AK",
    "tags": {
      "leisure": "dog_park"
    }
  },
  {
    "id": 740012868,
    "name": "South Anchorage Dog Park",
    "latitude": 61.1218337,
    "longitude": -149.8964706,
    "state": "Alaska",
    "stateAbbr": "AK",
    "tags": {
      "leisure": "dog_park",
      "name": "South Anchorage Dog Park"
    }
  },
  {
    "id": 868802355,
    "name": "Russian Jack Dog Park",
    "latitude": 61.2155633,
    "longitude": -149.7817983,
    "state": "Alaska",
    "stateAbbr": "AK",
    "tags": {
      "leisure": "dog_park",
      "name": "Russian Jack Dog Park"
    }
  },
  {
    "id": 946951641,
    "name": "North Gasline Dog Trail",
    "latitude": 61.1669318,
    "longitude": -149.7271194,
    "state": "Alaska",
    "stateAbbr": "AK",
    "tags": {
      "leisure": "dog_park",
      "name": "North Gasline Dog Trail"
    }
  },
  {
    "id": 972017150,
    "name": "Dawson City Off-Leash Dog Park",
    "latitude": 64.0713307,
    "longitude": -139.4236048,
    "state": "Alaska",
    "stateAbbr": "AK",
    "tags": {
      "leisure": "dog_park",
      "name": "Dawson City Off-Leash Dog Park"
    }
  },
  {
    "id": 985648962,
    "name": "Dog Park",
    "latitude": 61.1508448,
    "longitude": -149.8465415,
    "state": "Alaska",
    "stateAbbr": "AK",
    "tags": {
      "leisure": "dog_park"
    }
  },
  {
    "id": 1009739060,
    "name": "Dog Park",
    "latitude": 61.2064155,
    "longitude": -149.8206705,
    "state": "Alaska",
    "stateAbbr": "AK",
    "tags": {
      "leisure": "dog_park"
    }
  },
  {
    "id": 1054261728,
    "name": "Chanshtnu Dog Park",
    "latitude": 61.2088047,
    "longitude": -149.7279697,
    "state": "Alaska",
    "stateAbbr": "AK",
    "tags": {
      "leisure": "dog_park",
      "name": "Chanshtnu Dog Park",
      "wheelchair": "yes"
    }
  },
  {
    "id": 1060834278,
    "name": "Whitehorse Downtown Dog Park",
    "latitude": 60.7170166,
    "longitude": -135.0616589,
    "state": "Alaska",
    "stateAbbr": "AK",
    "tags": {
      "access": "yes",
      "leisure": "dog_park",
      "name": "Whitehorse Downtown Dog Park",
      "operator": "City of Whitehorse",
      "operator:type": "government",
      "wheelchair": "limited"
    }
  },
  {
    "id": 1187846607,
    "name": "Dog Park",
    "latitude": 61.6302374,
    "longitude": -149.7957885,
    "state": "Alaska",
    "stateAbbr": "AK",
    "tags": {
      "leisure": "dog_park"
    }
  },
  {
    "id": 1218898973,
    "name": "East Addition Dog Park",
    "latitude": 57.799994,
    "longitude": -152.3793672,
    "state": "Alaska",
    "stateAbbr": "AK",
    "tags": {
      "access": "yes",
      "addr:city": "Kodiak",
      "addr:housenumber": "1621",
      "addr:postcode": "99615",
      "addr:state": "AK",
      "addr:street": "Simeonof Street",
      "leisure": "dog_park",
      "name": "East Addition Dog Park",
      "operator": "City Of Kodiak",
      "operator:type": "public/government"
    }
  },
  {
    "id": 1242099251,
    "name": "South Davis Dog Park",
    "latitude": 64.8237412,
    "longitude": -147.7652706,
    "state": "Alaska",
    "stateAbbr": "AK",
    "tags": {
      "leisure": "dog_park",
      "name": "South Davis Dog Park"
    }
  },
  {
    "id": 1381083178,
    "name": "Dog Park",
    "latitude": 54.223481,
    "longitude": -130.2902922,
    "state": "Alaska",
    "stateAbbr": "AK",
    "tags": {
      "leisure": "dog_park"
    }
  },
  {
    "id": 1427004784,
    "name": "Fairbanks Dog Park 2nd Ave",
    "latitude": 64.8424713,
    "longitude": -147.7554484,
    "state": "Alaska",
    "stateAbbr": "AK",
    "tags": {
      "addr:city": "Fairbanks",
      "addr:housenumber": "1890",
      "addr:postcode": "99701",
      "addr:state": "AK",
      "addr:street": "2nd Avenue",
      "leisure": "dog_park",
      "name": "Fairbanks Dog Park 2nd Ave"
    }
  },
  {
    "id": 1433996362,
    "name": "Dog Park",
    "latitude": 54.3032137,
    "longitude": -130.3350615,
    "state": "Alaska",
    "stateAbbr": "AK",
    "tags": {
      "leisure": "dog_park"
    }
  },
  {
    "id": 12568094,
    "name": "Dog Park",
    "latitude": 61.2048125,
    "longitude": -149.891822,
    "state": "Alaska",
    "stateAbbr": "AK",
    "tags": {
      "leisure": "dog_park",
      "type": "multipolygon"
    }
  }
]