[
  {
    "id": 1229112075,
    "name": "Dog Park",
    "latitude": 37.7361936,
    "longitude": -122.4848346,
    "state": "California",
    "stateAbbr": "CA",
    "tags": {
      "leisure": "dog_park"
    }
  },
  {
    "id": 1514366748,
    "name": "Morgan Hill Dog Park",
    "latitude": 37.1122864,
    "longitude": -121.6472195,
    "state": "California",
    "stateAbbr": "CA",
    "tags": {
      "access": "yes",
      "addr:city": "Morgan Hill",
      "addr:housenumber": "271",
      "addr:postcode": "95037",
      "addr:state": "CA",
      "addr:street": "W Edmundson Ave",
      "barrier": "fence",
      "leisure": "dog_park",
      "name": "Morgan Hill Dog Park"
    }
  },
  {
    "id": 670143837,
    "name": "Los Gatos Creek County Dog Park (large)",
    "latitude": 37.2718409,
    "longitude": -121.949483,
    "state": "California",
    "stateAbbr": "CA",
    "tags": {
      "leisure": "dog_park",
      "name": "Los Gatos Creek County Dog Park (large)"
    }
  },
  {
    "id": 2890436159,
    "name": "Laguna Lake Dog Park",
    "latitude": 35.2650754,
    "longitude": -120.6832276,
    "state": "California",
    "stateAbbr": "CA",
    "tags": {
      "leisure": "dog_park",
      "name": "Laguna Lake Dog Park",
      "note": "Open area dog park"
    }
  },
  {
    "id": 3378417991,
    "name": "Montiel Dog Park",
    "latitude": 33.1312825,
    "longitude": -117.1138159,
    "state": "California",
    "stateAbbr": "CA",
    "tags": {
      "leisure": "dog_park",
      "name": "Montiel Dog Park"
    }
  },
  {
    "id": 3378420395,
    "name": "Hollandia Dog Park",
    "latitude": 33.1483237,
    "longitude": -117.1449102,
    "state": "California",
    "stateAbbr": "CA",
    "tags": {
      "access": "yes",
      "leisure": "dog_park",
      "name": "Hollandia Dog Park",
      "wheelchair": "limited"
    }
  },
  {
    "id": 3643899242,
    "name": "Dog Park",
    "latitude": 33.3552707,
    "longitude": -118.4375826,
    "state": "California",
    "stateAbbr": "CA",
    "tags": {
      "leisure": "dog_park"
    }
  },
  {
    "id": 3769876419,
    "name": "Whitnall Highway Off-leash Dog Park",
    "latitude": 34.1762895,
    "longitude": -118.362165,
    "state": "California",
    "stateAbbr": "CA",
    "tags": {
      "access": "yes",
      "leisure": "dog_park",
      "name": "Whitnall Highway Off-leash Dog Park",
      "operator": "City of Los Angeles Department of Recreation and Parks",
      "website": "https://www.laparks.org/dogpark/whitnall"
    }
  },
  {
    "id": 3918012502,
    "name": "Dog Park",
    "latitude": 35.2571456,
    "longitude": -116.692317,
    "state": "California",
    "stateAbbr": "CA",
    "tags": {
      "leisure": "dog_park",
      "wheelchair": "yes"
    }
  },
  {
    "id": 3926381452,
    "name": "Low Gap Dog Park",
    "latitude": 39.1623073,
    "longitude": -123.2273235,
    "state": "California",
    "stateAbbr": "CA",
    "tags": {
      "leisure": "dog_park",
      "name": "Low Gap Dog Park"
    }
  },
  {
    "id": 4221076410,
    "name": "Dog Park",
    "latitude": 37.4003115,
    "longitude": -121.9199941,
    "state": "California",
    "stateAbbr": "CA",
    "tags": {
      "leisure": "dog_park"
    }
  },
  {
    "id": 5235252962,
    "name": "Dog Park",
    "latitude": 41.4781103,
    "longitude": -122.4573769,
    "state": "California",
    "stateAbbr": "CA",
    "tags": {
      "leisure": "dog_park",
      "operator": "Caltrans",
      "operator:type": "public"
    }
  },
  {
    "id": 5332888952,
    "name": "Baldwin Dog Park",
    "latitude": 37.9840882,
    "longitude": -122.0274301,
    "state": "California",
    "stateAbbr": "CA",
    "tags": {
      "leisure": "dog_park",
      "name": "Baldwin Dog Park"
    }
  },
  {
    "id": 5388017582,
    "name": "Dusty Rhodes Dog Park",
    "latitude": 32.7529166,
    "longitude": -117.2379978,
    "state": "California",
    "stateAbbr": "CA",
    "tags": {
      "leisure": "dog_park",
      "name": "Dusty Rhodes Dog Park",
      "website": "https://www.dustyrhodespark.org"
    }
  },
  {
    "id": 5394688230,
    "name": "Canvas LA Dog Park",
    "latitude": 34.0593211,
    "longitude": -118.2534311,
    "state": "California",
    "stateAbbr": "CA",
    "tags": {
      "leisure": "dog_park",
      "name": "Canvas LA Dog Park"
    }
  },
  {
    "id": 6059435119,
    "name": "Dog Park",
    "latitude": 36.2595956,
    "longitude": -115.0920865,
    "state": "California",
    "stateAbbr": "CA",
    "tags": {
      "leisure": "dog_park"
    }
  },
  {
    "id": 6069215831,
    "name": "Big Dogs",
    "latitude": 34.1859646,
    "longitude": -118.5170024,
    "state": "California",
    "stateAbbr": "CA",
    "tags": {
      "leisure": "dog_park",
      "name": "Big Dogs"
    }
  },
  {
    "id": 6158076733,
    "name": "Dog Park",
    "latitude": 33.0395553,
    "longitude": -117.1145839,
    "state": "California",
    "stateAbbr": "CA",
    "tags": {
      "leisure": "dog_park"
    }
  },
  {
    "id": 6356723543,
    "name": "Dog Park",
    "latitude": 41.853417,
    "longitude": -122.5717238,
    "state": "California",
    "stateAbbr": "CA",
    "tags": {
      "leisure": "dog_park"
    }
  },
  {
    "id": 6481963255,
    "name": "Dog Park",
    "latitude": 34.088027,
    "longitude": -117.3810856,
    "state": "California",
    "stateAbbr": "CA",
    "tags": {
      "leisure": "dog_park"
    }
  },
  {
    "id": 6808701259,
    "name": "Dog Park",
    "latitude": 37.3665792,
    "longitude": -118.3944306,
    "state": "California",
    "stateAbbr": "CA",
    "tags": {
      "leisure": "dog_park"
    }
  },
  {
    "id": 7217154392,
    "name": "Dog Park",
    "latitude": 33.9664585,
    "longitude": -117.7334913,
    "state": "California",
    "stateAbbr": "CA",
    "tags": {
      "leisure": "dog_park"
    }
  },
  {
    "id": 7248939133,
    "name": "Dog Park",
    "latitude": 37.6938976,
    "longitude": -122.1178414,
    "state": "California",
    "stateAbbr": "CA",
    "tags": {
      "leisure": "dog_park"
    }
  },
  {
    "id": 7685719400,
    "name": "Dog Park",
    "latitude": 39.5919731,
    "longitude": -122.2079262,
    "state": "California",
    "stateAbbr": "CA",
    "tags": {
      "leisure": "dog_park"
    }
  },
  {
    "id": 12597078921,
    "name": "Service Animal Relief Area",
    "latitude": 38.5102996,
    "longitude": -122.806209,
    "state": "California",
    "stateAbbr": "CA",
    "tags": {
      "description": "ourdoor patio with bench, sink, artificial turf.",
      "leisure": "dog_park",
      "name": "Service Animal Relief Area"
    }
  },
  {
    "id": 8569984338,
    "name": "Dog Park",
    "latitude": 38.5503536,
    "longitude": -122.8125204,
    "state": "California",
    "stateAbbr": "CA",
    "tags": {
      "leisure": "dog_park"
    }
  },
  {
    "id": 8923339482,
    "name": "Dog Park",
    "latitude": 34.1405924,
    "longitude": -116.305614,
    "state": "California",
    "stateAbbr": "CA",
    "tags": {
      "area": "yes",
      "barrier": "fence",
      "leisure": "dog_park",
      "opening_hours": "sunrise-sunset"
    }
  },
  {
    "id": 1009046301,
    "name": "Orion Dog Park",
    "latitude": 32.6144227,
    "longitude": -116.9623069,
    "state": "California",
    "stateAbbr": "CA",
    "tags": {
      "leisure": "dog_park",
      "name": "Orion Dog Park"
    }
  },
  {
    "id": 9382920207,
    "name": "Dog Park",
    "latitude": 37.4049063,
    "longitude": -122.1222298,
    "state": "California",
    "stateAbbr": "CA",
    "tags": {
      "leisure": "dog_park",
      "operator": "Crowne Plaza"
    }
  },
  {
    "id": 9400408891,
    "name": "Dog Park",
    "latitude": 36.1845451,
    "longitude": -115.0887769,
    "state": "California",
    "stateAbbr": "CA",
    "tags": {
      "leisure": "dog_park"
    }
  },
  {
    "id": 9419666799,
    "name": "Dog Park",
    "latitude": 36.0131022,
    "longitude": -115.1071895,
    "state": "California",
    "stateAbbr": "CA",
    "tags": {
      "leisure": "dog_park"
    }
  },
  {
    "id": 10050134063,
    "name": "Poinsettia Dog Park",
    "latitude": 33.1150496,
    "longitude": -117.3060027,
    "state": "California",
    "stateAbbr": "CA",
    "tags": {
      "access": "yes",
      "addr:city": "Carlsbad",
      "addr:housenumber": "6600",
      "addr:postcode": "92011",
      "addr:state": "CA",
      "addr:street": "Hidden Valley Road",
      "description": "Bring your pooch to play at Carlsbad's newest dog park. Located at Poinsettia Community Park.",
      "dog": "yes",
      "image": "https://www.carlsbadca.gov/home/showpublishedimage/7231/637950549372900000",
      "internet_access": "no",
      "leisure": "dog_park",
      "name": "Poinsettia Dog Park",
      "operator": "City of Carlsbad",
      "operator:type": "government",
      "phone": "+1-442-339-2680",
      "source": "local knowledge",
      "website": "https://www.carlsbadca.gov/Home/Components/FacilityDirectory/FacilityDirectory/104/"
    }
  },
  {
    "id": 10099390997,
    "name": "The Bark at Central Park",
    "latitude": 34.1222039,
    "longitude": -117.568672,
    "state": "California",
    "stateAbbr": "CA",
    "tags": {
      "leisure": "dog_park",
      "name": "The Bark at Central Park",
      "operator": "City of Rancho Cucamonga",
      "source": "https://www.cityofrc.us/news/groundbreaking-bark-central-park-44-acre-dog-park"
    }
  },
  {
    "id": 10585498199,
    "name": "Dog Park",
    "latitude": 37.5336332,
    "longitude": -122.2818108,
    "state": "California",
    "stateAbbr": "CA",
    "tags": {
      "access": "yes",
      "description": "enclosed area",
      "leisure": "dog_park"
    }
  },
  {
    "id": 10738128304,
    "name": "Crystal Cove Dog Park",
    "latitude": 33.4664573,
    "longitude": -117.6926451,
    "state": "California",
    "stateAbbr": "CA",
    "tags": {
      "leisure": "dog_park",
      "name": "Crystal Cove Dog Park"
    }
  },
  {
    "id": 10838999335,
    "name": "City of Newport Beach Dog Park",
    "latitude": 33.6125607,
    "longitude": -117.869652,
    "state": "California",
    "stateAbbr": "CA",
    "tags": {
      "access": "yes",
      "addr:city": "Newport Beach",
      "addr:housenumber": "1521",
      "addr:postcode": "92625",
      "addr:state": "CA",
      "addr:street": "Avocado Avenue",
      "dog": "yes",
      "leisure": "dog_park",
      "name": "City of Newport Beach Dog Park",
      "opening_hours": "Mo-Su 07:00-19:00",
      "operator": "Newport Beach City Dog Park",
      "operator:type": "government_facility-public",
      "website": "https://nbgis.newportbeachca.gov/RecFacilityImages/default.aspx?TAG=FACIL_073"
    }
  },
  {
    "id": 10853468616,
    "name": "Elings Park",
    "latitude": 34.4107186,
    "longitude": -119.7360977,
    "state": "California",
    "stateAbbr": "CA",
    "tags": {
      "access": "customers",
      "addr:city": "Santa Barbara",
      "addr:housenumber": "1298",
      "addr:postcode": "93105",
      "addr:state": "CA",
      "addr:street": "Las Positas Rd",
      "description": "All dogs must have an EPDOG membership while inside Eling's Park. Day passes are not available. EPDOG Memberships and renewals are $150 per dog per year, with a maximum of 3 dogs per person in the Park at one time.",
      "dog": "unleashed",
      "fee": "yes",
      "leisure": "dog_park",
      "name": "Elings Park",
      "operator:type": "private",
      "website": "https://elingspark.org/off-leash-dogs/"
    }
  },
  {
    "id": 10853503127,
    "name": "Point Isabel Dog Park",
    "latitude": 37.8989507,
    "longitude": -122.324812,
    "state": "California",
    "stateAbbr": "CA",
    "tags": {
      "access": "yes",
      "addr:city": "Richmond",
      "addr:housenumber": "2701",
      "addr:postcode": "94804",
      "addr:state": "CA",
      "addr:street": "Isabel Street",
      "barrier": "no",
      "dog": "yes",
      "leisure": "dog_park",
      "name": "Point Isabel Dog Park",
      "small_dog": "shared",
      "website": "https://www.ebparks.org/parks/point-isabel"
    }
  },
  {
    "id": 10853801325,
    "name": "Springville Dog Park",
    "latitude": 34.2260747,
    "longitude": -119.087557,
    "state": "California",
    "stateAbbr": "CA",
    "tags": {
      "access": "yes",
      "addr:city": "Camarillo",
      "addr:housenumber": "709",
      "addr:postcode": "93010",
      "addr:state": "CA",
      "addr:street": "Via Zamora",
      "dog": "yes",
      "leisure": "dog_park",
      "name": "Springville Dog Park",
      "website": "https://www.pvrpd.org/springville-dog-park"
    }
  },
  {
    "id": 174826283,
    "name": "Rincon Hill Dog Park",
    "latitude": 37.7859383,
    "longitude": -122.3904146,
    "state": "California",
    "stateAbbr": "CA",
    "tags": {
      "addr:housenumber": "486",
      "contact:website": "https://www.rinconhilldogpark.org/",
      "leisure": "dog_park",
      "name": "Rincon Hill Dog Park",
      "source": "Survey"
    }
  },
  {
    "id": 11177578145,
    "name": "Jacaranda Dog Park",
    "latitude": 33.7980363,
    "longitude": -117.891632,
    "state": "California",
    "stateAbbr": "CA",
    "tags": {
      "leisure": "dog_park",
      "name": "Jacaranda Dog Park"
    }
  },
  {
    "id": 11211269259,
    "name": "Dog Park",
    "latitude": 39.8073981,
    "longitude": -120.4751689,
    "state": "California",
    "stateAbbr": "CA",
    "tags": {
      "leisure": "dog_park"
    }
  },
  {
    "id": 11890112234,
    "name": "Deer Creek Village Dog Park",
    "latitude": 38.2540555,
    "longitude": -122.6394684,
    "state": "California",
    "stateAbbr": "CA",
    "tags": {
      "access": "yes",
      "leisure": "dog_park",
      "name": "Deer Creek Village Dog Park"
    }
  },
  {
    "id": 11891937170,
    "name": "Dog Park",
    "latitude": 34.9293846,
    "longitude": -117.9320826,
    "state": "California",
    "stateAbbr": "CA",
    "tags": {
      "leisure": "dog_park"
    }
  },
  {
    "id": 12030201251,
    "name": "Nuevo Community Dog Park (Large Dogs)",
    "latitude": 37.3768304,
    "longitude": -121.9937976,
    "state": "California",
    "stateAbbr": "CA",
    "tags": {
      "access": "yes",
      "addr:city": "Santa Clara",
      "addr:housenumber": "3000",
      "addr:postcode": "95050",
      "addr:state": "CA",
      "addr:street": "Ryder Street",
      "description": "Large dog area",
      "dog": "unleashed",
      "leisure": "dog_park",
      "name": "Nuevo Community Dog Park (Large Dogs)",
      "opening_hours": "Mo-Su 07:00-(sunset+00:30); Tu 12:00-(sunset+00:30)",
      "operator": "City of Santa Clara",
      "operator:type": "government",
      "phone": "+1-408-615-2260",
      "website": "https://www.santaclaraca.gov/Home/Components/FacilityDirectory/FacilityDirectory/165/15258?selamenityid=10"
    }
  },
  {
    "id": 12050624472,
    "name": "Las Palmas Dog Park",
    "latitude": 32.6693266,
    "longitude": -117.0825974,
    "state": "California",
    "stateAbbr": "CA",
    "tags": {
      "leisure": "dog_park",
      "name": "Las Palmas Dog Park"
    }
  },
  {
    "id": 12485239150,
    "name": "Stone Brewing World Bistro & Gardens",
    "latitude": 33.1160485,
    "longitude": -117.1197496,
    "state": "California",
    "stateAbbr": "CA",
    "tags": {
      "addr:city": "Escondido",
      "addr:housenumber": "1999",
      "addr:postcode": "92029",
      "addr:state": "CA",
      "addr:street": "Citracado Parkway",
      "leisure": "dog_park",
      "name": "Stone Brewing World Bistro & Gardens"
    }
  },
  {
    "id": 12485277246,
    "name": "AleSmith Brewing Company",
    "latitude": 32.8882751,
    "longitude": -117.1498948,
    "state": "California",
    "stateAbbr": "CA",
    "tags": {
      "addr:city": "San Diego",
      "addr:housenumber": "9990",
      "addr:postcode": "92126",
      "addr:state": "CA",
      "addr:street": "AleSmith Court",
      "leisure": "dog_park",
      "name": "AleSmith Brewing Company"
    }
  },
  {
    "id": 12557859300,
    "name": "Gompers Dog Park",
    "latitude": 32.7167956,
    "longitude": -117.088432,
    "state": "California",
    "stateAbbr": "CA",
    "tags": {
      "leisure": "dog_park",
      "name": "Gompers Dog Park"
    }
  },
  {
    "id": 12578114801,
    "name": "Mountains Edge Dog park",
    "latitude": 36.0069673,
    "longitude": -115.2857733,
    "state": "California",
    "stateAbbr": "CA",
    "tags": {
      "leisure": "dog_park",
      "name": "Mountains Edge Dog park",
      "opening_hours": "Mo-Su 06:00-22:00",
      "wheelchair": "no"
    }
  },
  {
    "id": 12729526853,
    "name": "Dog Park",
    "latitude": 40.9177755,
    "longitude": -122.3980108,
    "state": "California",
    "stateAbbr": "CA",
    "tags": {
      "barrier": "fence",
      "leisure": "dog_park"
    }
  },
  {
    "id": 12729728970,
    "name": "Dog Park",
    "latitude": 39.5929582,
    "longitude": -122.2109123,
    "state": "California",
    "stateAbbr": "CA",
    "tags": {
      "leisure": "dog_park"
    }
  },
  {
    "id": 12898340567,
    "name": "Dog Park",
    "latitude": 39.1675105,
    "longitude": -122.1432777,
    "state": "California",
    "stateAbbr": "CA",
    "tags": {
      "brand": "Love's",
      "brand:wikidata": "Q1872496",
      "leisure": "dog_park"
    }
  },
  {
    "id": 13031931630,
    "name": "Dog Park",
    "latitude": 36.2109042,
    "longitude": -119.0928415,
    "state": "California",
    "stateAbbr": "CA",
    "tags": {
      "leisure": "dog_park"
    }
  },
  {
    "id": 13063038644,
    "name": "Dog Park",
    "latitude": 36.1816214,
    "longitude": -119.3305942,
    "state": "California",
    "stateAbbr": "CA",
    "tags": {
      "leisure": "dog_park"
    }
  },
  {
    "id": 13101640469,
    "name": "Sonora Sunrise Rotary Dog Park",
    "latitude": 37.98957,
    "longitude": -120.3640095,
    "state": "California",
    "stateAbbr": "CA",
    "tags": {
      "addr:city": "Sonora",
      "addr:housenumber": "12865",
      "addr:postcode": "95370",
      "addr:state": "CA",
      "addr:street": "Covey Circle",
      "dog": "unleashed",
      "email": "info@SonoraSunriseRotary.org",
      "leisure": "dog_park",
      "name": "Sonora Sunrise Rotary Dog Park",
      "opening_hours": "Mo-Su 06:00-20:00",
      "operator": "Sonora Sunrise Rotary",
      "operator:type": "community",
      "website": "https://www.sonorasunriserotary.com/dog-park---community-garden-1.html"
    }
  },
  {
    "id": 13260464682,
    "name": "Dog Park",
    "latitude": 37.4125557,
    "longitude": -121.9409839,
    "state": "California",
    "stateAbbr": "CA",
    "tags": {
      "access": "private",
      "leisure": "dog_park"
    }
  },
  {
    "id": 13409431435,
    "name": "Dog Park",
    "latitude": 33.7631978,
    "longitude": -116.3390028,
    "state": "California",
    "stateAbbr": "CA",
    "tags": {
      "access": "private",
      "leisure": "dog_park"
    }
  },
  {
    "id": 13565623337,
    "name": "Drummond Ranch",
    "latitude": 34.4666686,
    "longitude": -118.1220714,
    "state": "California",
    "stateAbbr": "CA",
    "tags": {
      "access": "permissive",
      "addr:city": "Palmdale",
      "addr:housenumber": "32230",
      "addr:postcode": "93550",
      "addr:state": "CA",
      "addr:street": "Angeles Forest Highway",
      "description": "Sheep-herding recreation for border collies and similar dogs. Though the official address is on Angeles Forest Highway, the ranch is near Forest Ridge Road, just off Angeles Forest Highway.",
      "leisure": "dog_park",
      "name": "Drummond Ranch",
      "operator": "Drummond Ranch Inc.",
      "operator:type": "business",
      "phone": "+1-661-435-2825",
      "website": "https://www.drummondranch.net"
    }
  },
  {
    "id": 13567393701,
    "name": "McLaren Park Dog Play Area",
    "latitude": 37.7194526,
    "longitude": -122.4187836,
    "state": "California",
    "stateAbbr": "CA",
    "tags": {
      "leisure": "dog_park",
      "name": "McLaren Park Dog Play Area"
    }
  },
  {
    "id": 13646502706,
    "name": "Valley Oak Small Dog Park",
    "latitude": 38.6733287,
    "longitude": -121.5297655,
    "state": "California",
    "stateAbbr": "CA",
    "tags": {
      "access": "yes",
      "addr:city": "sacramento",
      "addr:housenumber": "2780",
      "addr:postcode": "95835",
      "addr:state": "CA",
      "addr:street": "Mabry Drive",
      "leisure": "dog_park",
      "name": "Valley Oak Small Dog Park",
      "operator": "City of Sacramento",
      "operator:type": "government",
      "website": "https://cityofsacramento.gov"
    }
  },
  {
    "id": 10320862,
    "name": "César Chávez Dog Park",
    "latitude": 37.8732301,
    "longitude": -122.3199272,
    "state": "California",
    "stateAbbr": "CA",
    "tags": {
      "addr:city": "Berkeley",
      "leisure": "dog_park",
      "name": "César Chávez Dog Park"
    }
  },
  {
    "id": 22738854,
    "name": "Westminster Dog Park",
    "latitude": 33.9902264,
    "longitude": -118.4732657,
    "state": "California",
    "stateAbbr": "CA",
    "tags": {
      "leisure": "dog_park",
      "name": "Westminster Dog Park",
      "source": "Yahoo;local knowledge",
      "wikidata": "Q49579384"
    }
  },
  {
    "id": 25447923,
    "name": "Toad Hollow Dog Park",
    "latitude": 38.5464322,
    "longitude": -121.7297567,
    "state": "California",
    "stateAbbr": "CA",
    "tags": {
      "leisure": "dog_park",
      "name": "Toad Hollow Dog Park",
      "source": "Davis_Wiki"
    }
  },
  {
    "id": 25966875,
    "name": "Watson Dog Park",
    "latitude": 37.3596669,
    "longitude": -121.8751343,
    "state": "California",
    "stateAbbr": "CA",
    "tags": {
      "leisure": "dog_park",
      "name": "Watson Dog Park"
    }
  },
  {
    "id": 26274198,
    "name": "Miyuki Dog Park",
    "latitude": 37.239717,
    "longitude": -121.7937635,
    "state": "California",
    "stateAbbr": "CA",
    "tags": {
      "leisure": "dog_park",
      "name": "Miyuki Dog Park"
    }
  },
  {
    "id": 30085555,
    "name": "Dog Park",
    "latitude": 37.5908942,
    "longitude": -122.3564214,
    "state": "California",
    "stateAbbr": "CA",
    "tags": {
      "barrier": "fence",
      "leisure": "dog_park"
    }
  },
  {
    "id": 32823675,
    "name": "Dog Park",
    "latitude": 37.2879492,
    "longitude": -121.8102552,
    "state": "California",
    "stateAbbr": "CA",
    "tags": {
      "leisure": "dog_park"
    }
  },
  {
    "id": 35972446,
    "name": "Dog Park",
    "latitude": 37.5729389,
    "longitude": -122.2990826,
    "state": "California",
    "stateAbbr": "CA",
    "tags": {
      "barrier": "fence",
      "leisure": "dog_park",
      "name": "Dog Park"
    }
  },
  {
    "id": 36068104,
    "name": "Pacchetti Dog Park",
    "latitude": 36.5992699,
    "longitude": -121.8388774,
    "state": "California",
    "stateAbbr": "CA",
    "tags": {
      "ALAND": "16571",
      "AREAID": "110411441852",
      "AWATER": "0",
      "COUNTYFP": "053",
      "MTFCC": "K2180",
      "STATEFP": "06",
      "Tiger:MTFCC": "K2180",
      "leisure": "dog_park",
      "name": "Pacchetti Dog Park",
      "source": "Tiger2009"
    }
  },
  {
    "id": 38025784,
    "name": "Corona Heights Dog Play Area",
    "latitude": 37.7655424,
    "longitude": -122.4398144,
    "state": "California",
    "stateAbbr": "CA",
    "tags": {
      "barrier": "fence",
      "leisure": "dog_park",
      "name": "Corona Heights Dog Play Area",
      "surface": "woodchips",
      "website": "https://sfrecpark.org/Facilities/Facility/Details/Corona-Heights-Dog-Play-Area-5"
    }
  },
  {
    "id": 38895724,
    "name": "Dog Park",
    "latitude": 37.956018,
    "longitude": -121.9800645,
    "state": "California",
    "stateAbbr": "CA",
    "tags": {
      "access": "yes",
      "leisure": "dog_park"
    }
  },
  {
    "id": 42390448,
    "name": "Raymond G. Gamma Reed Street Dog Park",
    "latitude": 37.3587063,
    "longitude": -121.9471747,
    "state": "California",
    "stateAbbr": "CA",
    "tags": {
      "addr:city": "Santa Clara",
      "addr:housenumber": "888",
      "addr:postcode": "95050",
      "addr:state": "CA",
      "addr:street": "Reed Street",
      "leisure": "dog_park",
      "name": "Raymond G. Gamma Reed Street Dog Park",
      "name:etymology": "Raymond G. Gamma",
      "operator": "City of Santa Clara",
      "phone": "+1-408-615-3144",
      "website": "http://santaclaraca.gov/index.aspx?page=2654&recordid=296"
    }
  },
  {
    "id": 42498954,
    "name": "Dog Park",
    "latitude": 34.021302,
    "longitude": -118.4816615,
    "state": "California",
    "stateAbbr": "CA",
    "tags": {
      "leisure": "dog_park"
    }
  },
  {
    "id": 44696160,
    "name": "Nate's Point Dog Park",
    "latitude": 32.7305793,
    "longitude": -117.1565634,
    "state": "California",
    "stateAbbr": "CA",
    "tags": {
      "access:dog": "yes",
      "barrier": "fence",
      "leisure": "dog_park",
      "name": "Nate's Point Dog Park"
    }
  },
  {
    "id": 50536124,
    "name": "Dog Park",
    "latitude": 32.8630936,
    "longitude": -117.2292642,
    "state": "California",
    "stateAbbr": "CA",
    "tags": {
      "leisure": "dog_park"
    }
  },
  {
    "id": 56645382,
    "name": "Mission Bay Dog Park",
    "latitude": 37.770686,
    "longitude": -122.3991458,
    "state": "California",
    "stateAbbr": "CA",
    "tags": {
      "access": "yes",
      "alt_name": "Berry Street Dog Park",
      "barrier": "fence",
      "leisure": "dog_park",
      "lit": "yes",
      "name": "Mission Bay Dog Park",
      "opening_hours": "06:00-22:00",
      "website": "https://sfrecpark.org/Facilities/Facility/Details/Berry-Street-Dog-Park-452",
      "wheelchair": "limited"
    }
  },
  {
    "id": 57847075,
    "name": "Dog Park",
    "latitude": 37.0217861,
    "longitude": -121.5810191,
    "state": "California",
    "stateAbbr": "CA",
    "tags": {
      "leisure": "dog_park"
    }
  },
  {
    "id": 60823481,
    "name": "Dog Park",
    "latitude": 36.1232598,
    "longitude": -115.2738492,
    "state": "California",
    "stateAbbr": "CA",
    "tags": {
      "leisure": "dog_park"
    }
  },
  {
    "id": 69020797,
    "name": "Ohlone Dog Park",
    "latitude": 37.8734022,
    "longitude": -122.27468,
    "state": "California",
    "stateAbbr": "CA",
    "tags": {
      "addr:city": "Berkeley",
      "area": "yes",
      "leisure": "dog_park",
      "name": "Ohlone Dog Park",
      "website": "https://berkeleyca.gov/community-recreation/parks-recreation/parks/ohlone-park",
      "wheelchair": "yes"
    }
  },
  {
    "id": 69709788,
    "name": "Dog Park",
    "latitude": 36.9817403,
    "longitude": -121.8768823,
    "state": "California",
    "stateAbbr": "CA",
    "tags": {
      "barrier": "fence",
      "leisure": "dog_park"
    }
  },
  {
    "id": 91270187,
    "name": "Jeffrey Fontana Dog Park",
    "latitude": 37.2326728,
    "longitude": -121.8798514,
    "state": "California",
    "stateAbbr": "CA",
    "tags": {
      "leisure": "dog_park",
      "name": "Jeffrey Fontana Dog Park"
    }
  },
  {
    "id": 92574879,
    "name": "Deputy Lonnie G Brewer County Park",
    "latitude": 32.7503576,
    "longitude": -116.9579305,
    "state": "California",
    "stateAbbr": "CA",
    "tags": {
      "addr:city": "San Diego",
      "addr:country": "US",
      "addr:housenumber": "10925",
      "addr:postcode": "91941",
      "addr:street": "Fury Lane",
      "dog": "unleashed",
      "ele": "173",
      "gnis:feature_id": "1869701",
      "leisure": "dog_park",
      "name": "Deputy Lonnie G Brewer County Park",
      "source": "SanGIS Addresses Public Domain (http://www.sangis.org/)"
    }
  },
  {
    "id": 96328182,
    "name": "Modesto Dog Park",
    "latitude": 37.6514416,
    "longitude": -121.0011032,
    "state": "California",
    "stateAbbr": "CA",
    "tags": {
      "ele": "27",
      "leisure": "dog_park",
      "name": "Modesto Dog Park",
      "operator": "City of Modesto"
    }
  },
  {
    "id": 96660324,
    "name": "Canine Corners Dog Park",
    "latitude": 32.7872866,
    "longitude": -116.9864505,
    "state": "California",
    "stateAbbr": "CA",
    "tags": {
      "area": "yes",
      "leisure": "dog_park",
      "name": "Canine Corners Dog Park",
      "wheelchair": "yes"
    }
  },
  {
    "id": 98094176,
    "name": "Mitchell Park Dog Park",
    "latitude": 37.4198301,
    "longitude": -122.113904,
    "state": "California",
    "stateAbbr": "CA",
    "tags": {
      "leisure": "dog_park",
      "name": "Mitchell Park Dog Park"
    }
  },
  {
    "id": 101147958,
    "name": "Marlado Highlands Dog Park",
    "latitude": 33.2321166,
    "longitude": -117.3447984,
    "state": "California",
    "stateAbbr": "CA",
    "tags": {
      "description": "Open area and grassy dog park ",
      "landuse": "grass",
      "leisure": "dog_park",
      "name": "Marlado Highlands Dog Park"
    }
  },
  {
    "id": 105829769,
    "name": "Large Dog Park",
    "latitude": 33.8941775,
    "longitude": -117.5974241,
    "state": "California",
    "stateAbbr": "CA",
    "tags": {
      "leisure": "dog_park",
      "name": "Large Dog Park",
      "operator": "City of Corona",
      "source": "bing_imagery_0.06m_200706;survey;image",
      "source_ref": "AM909_DSCW9589"
    }
  },
  {
    "id": 109819852,
    "name": "Dog Park",
    "latitude": 37.460639,
    "longitude": -122.1584852,
    "state": "California",
    "stateAbbr": "CA",
    "tags": {
      "leisure": "dog_park"
    }
  },
  {
    "id": 112183891,
    "name": "Wag World Dog Park - Large Dogs",
    "latitude": 37.9235035,
    "longitude": -122.0455087,
    "state": "California",
    "stateAbbr": "CA",
    "tags": {
      "barrier": "fence",
      "designation": "dog_park",
      "leisure": "dog_park",
      "name": "Wag World Dog Park - Large Dogs",
      "source": "Local knowledge"
    }
  },
  {
    "id": 113102733,
    "name": "Dog Park",
    "latitude": 32.8639599,
    "longitude": -117.2171701,
    "state": "California",
    "stateAbbr": "CA",
    "tags": {
      "leisure": "dog_park",
      "wheelchair": "yes"
    }
  },
  {
    "id": 119401962,
    "name": "Tabano Hollow Open Space",
    "latitude": 34.4439918,
    "longitude": -119.8008619,
    "state": "California",
    "stateAbbr": "CA",
    "tags": {
      "access": "yes",
      "addr:city": "Santa Barbara",
      "addr:housenumber": "5100",
      "addr:postcode": "93111",
      "addr:state": "CA",
      "addr:street": "University Drive",
      "description": "Offleash hours are from 8 am to 10 am and from 3 pm to Sunset. The park also has benches and drinking fountains for dogs.",
      "designation": "common",
      "dog": "yes",
      "leisure": "dog_park",
      "name": "Tabano Hollow Open Space",
      "operator": "Santa Barbara County",
      "operator:type": "government",
      "owner": "County of Santa Barbara",
      "source": "Local Knowledge",
      "website": "https://www.countyofsb.org/917/Tabano-Hollow",
      "wheelchair": "yes"
    }
  },
  {
    "id": 120713680,
    "name": "Dog Park",
    "latitude": 32.8672998,
    "longitude": -117.1981615,
    "state": "California",
    "stateAbbr": "CA",
    "tags": {
      "leisure": "dog_park"
    }
  },
  {
    "id": 121005351,
    "name": "Marco Dog Park",
    "latitude": 38.7461258,
    "longitude": -121.258698,
    "state": "California",
    "stateAbbr": "CA",
    "tags": {
      "addr:city": "Roseville",
      "addr:housenumber": "1800",
      "addr:postcode": "95661",
      "addr:state": "CA",
      "addr:street": "Sierra Gardens Drive",
      "fee": "no",
      "leisure": "dog_park",
      "name": "Marco Dog Park",
      "vending": "excrement_bags",
      "water": "yes"
    }
  },
  {
    "id": 121005379,
    "name": "Bear Dog Park",
    "latitude": 38.7673444,
    "longitude": -121.3389978,
    "state": "California",
    "stateAbbr": "CA",
    "tags": {
      "addr:city": "Roseville",
      "addr:housenumber": "1575",
      "addr:state": "CA",
      "addr:street": "Pleasant Grove Boulevard",
      "attribution": "City of Roseville GIS",
      "barrier": "fence",
      "leisure": "dog_park",
      "name": "Bear Dog Park",
      "source": "http://www.roseville.ca.us/services/maps_n_data/data_clearinghouse.asp"
    }
  },
  {
    "id": 121315550,
    "name": "Dog Park",
    "latitude": 38.7997942,
    "longitude": -121.3348496,
    "state": "California",
    "stateAbbr": "CA",
    "tags": {
      "barrier": "fence",
      "leisure": "dog_park"
    }
  },
  {
    "id": 128534082,
    "name": "Dog Park",
    "latitude": 37.7805666,
    "longitude": -122.413677,
    "state": "California",
    "stateAbbr": "CA",
    "tags": {
      "barrier": "fence",
      "leisure": "dog_park",
      "url": "https://sfciviccenter.org/un-plaza-dog-park/"
    }
  },
  {
    "id": 129044646,
    "name": "Phoenix Dog Park",
    "latitude": 38.6497858,
    "longitude": -121.22352,
    "state": "California",
    "stateAbbr": "CA",
    "tags": {
      "leisure": "dog_park",
      "name": "Phoenix Dog Park"
    }
  },
  {
    "id": 132686101,
    "name": "Las Palmas Dog Park",
    "latitude": 37.3648285,
    "longitude": -122.0371897,
    "state": "California",
    "stateAbbr": "CA",
    "tags": {
      "leisure": "dog_park",
      "name": "Las Palmas Dog Park"
    }
  },
  {
    "id": 134625239,
    "name": "Dog Park",
    "latitude": 37.4299161,
    "longitude": -122.1281326,
    "state": "California",
    "stateAbbr": "CA",
    "tags": {
      "leisure": "dog_park"
    }
  },
  {
    "id": 146415798,
    "name": "Coronado Dog Beach",
    "latitude": 32.6864508,
    "longitude": -117.1951672,
    "state": "California",
    "stateAbbr": "CA",
    "tags": {
      "dog": "yes",
      "leisure": "dog_park",
      "name": "Coronado Dog Beach",
      "note": "Good off-leash dog beach within sight of Coronado Hotelof",
      "surface": "sand"
    }
  },
  {
    "id": 147114969,
    "name": "Dog Park",
    "latitude": 36.1809047,
    "longitude": -115.2669585,
    "state": "California",
    "stateAbbr": "CA",
    "tags": {
      "landuse": "grass",
      "leisure": "dog_park",
      "review": "no",
      "source": "Bing"
    }
  },
  {
    "id": 154972854,
    "name": "Hermon Dog Park",
    "latitude": 34.1073896,
    "longitude": -118.1852639,
    "state": "California",
    "stateAbbr": "CA",
    "tags": {
      "barrier": "fence",
      "leisure": "dog_park",
      "name": "Hermon Dog Park"
    }
  },
  {
    "id": 158300594,
    "name": "Dog Park",
    "latitude": 33.6913773,
    "longitude": -117.935972,
    "state": "California",
    "stateAbbr": "CA",
    "tags": {
      "leisure": "dog_park"
    }
  },
  {
    "id": 158755827,
    "name": "Ryland Dog Park",
    "latitude": 37.3419056,
    "longitude": -121.8982138,
    "state": "California",
    "stateAbbr": "CA",
    "tags": {
      "leisure": "dog_park",
      "name": "Ryland Dog Park"
    }
  },
  {
    "id": 169917738,
    "name": "Dog Park",
    "latitude": 37.4887783,
    "longitude": -120.829411,
    "state": "California",
    "stateAbbr": "CA",
    "tags": {
      "leisure": "dog_park",
      "source": "Bing"
    }
  },
  {
    "id": 170150745,
    "name": "Centennial Dog Park",
    "latitude": 37.6537449,
    "longitude": -122.4305856,
    "state": "California",
    "stateAbbr": "CA",
    "tags": {
      "barrier": "fence",
      "leisure": "dog_park",
      "name": "Centennial Dog Park"
    }
  },
  {
    "id": 177912065,
    "name": "Dog Park",
    "latitude": 34.1851433,
    "longitude": -118.7752024,
    "state": "California",
    "stateAbbr": "CA",
    "tags": {
      "barrier": "fence",
      "leisure": "dog_park"
    }
  },
  {
    "id": 179544895,
    "name": "Dog Park",
    "latitude": 38.5403691,
    "longitude": -121.7705246,
    "state": "California",
    "stateAbbr": "CA",
    "tags": {
      "access": "private",
      "leisure": "dog_park"
    }
  },
  {
    "id": 186841385,
    "name": "Redlands Dog Park",
    "latitude": 34.0440922,
    "longitude": -117.1623012,
    "state": "California",
    "stateAbbr": "CA",
    "tags": {
      "leisure": "dog_park",
      "name": "Redlands Dog Park"
    }
  },
  {
    "id": 187490967,
    "name": "Huntington Beach Dog Park",
    "latitude": 33.6977294,
    "longitude": -118.0138849,
    "state": "California",
    "stateAbbr": "CA",
    "tags": {
      "area": "yes",
      "leisure": "dog_park",
      "name": "Huntington Beach Dog Park"
    }
  },
  {
    "id": 188648807,
    "name": "Costa Mesa Bark Park",
    "latitude": 33.6696802,
    "longitude": -117.8921515,
    "state": "California",
    "stateAbbr": "CA",
    "tags": {
      "leisure": "dog_park",
      "name": "Costa Mesa Bark Park"
    }
  },
  {
    "id": 192181276,
    "name": "LAPD Lawn Park",
    "latitude": 34.0515858,
    "longitude": -118.245002,
    "state": "California",
    "stateAbbr": "CA",
    "tags": {
      "landuse": "grass",
      "leisure": "dog_park",
      "name": "LAPD Lawn Park"
    }
  },
  {
    "id": 197120838,
    "name": "Dog Park",
    "latitude": 35.9314035,
    "longitude": -115.1089314,
    "state": "California",
    "stateAbbr": "CA",
    "tags": {
      "barrier": "fence",
      "fence_type": "chain_link",
      "leisure": "dog_park"
    }
  },
  {
    "id": 197883812,
    "name": "City of Milpitas Dog Park",
    "latitude": 37.4572128,
    "longitude": -121.8629933,
    "state": "California",
    "stateAbbr": "CA",
    "tags": {
      "addr:city": "Milpitas",
      "addr:postcode": "95035",
      "addr:state": "CA",
      "addr:street": "Tularcitos Trail",
      "leisure": "dog_park",
      "name": "City of Milpitas Dog Park"
    }
  },
  {
    "id": 199885344,
    "name": "Riverwalk Big Dog Park",
    "latitude": 33.9008084,
    "longitude": -117.4954116,
    "state": "California",
    "stateAbbr": "CA",
    "tags": {
      "leisure": "dog_park",
      "name": "Riverwalk Big Dog Park",
      "surface": "grass"
    }
  },
  {
    "id": 203323632,
    "name": "Amador Vista Dog Park",
    "latitude": 36.0159086,
    "longitude": -115.0540515,
    "state": "California",
    "stateAbbr": "CA",
    "tags": {
      "barrier": "fence",
      "leisure": "dog_park",
      "name": "Amador Vista Dog Park",
      "opening_hours": "Mo,We,Th,Fr,Sa,Su 07:00-22:00; Tu 07:00-12:00,14:00-22:00",
      "review": "no",
      "source": "Bing"
    }
  },
  {
    "id": 204982601,
    "name": "Bark Park",
    "latitude": 36.8850296,
    "longitude": -121.4006736,
    "state": "California",
    "stateAbbr": "CA",
    "tags": {
      "addr:street": "San Felipe Road",
      "leisure": "dog_park",
      "name": "Bark Park"
    }
  },
  {
    "id": 207856632,
    "name": "WOOF Pac Dog Park - Small Dog",
    "latitude": 34.9007738,
    "longitude": -120.44304,
    "state": "California",
    "stateAbbr": "CA",
    "tags": {
      "leisure": "dog_park",
      "name": "WOOF Pac Dog Park - Small Dog"
    }
  },
  {
    "id": 207856634,
    "name": "WOOF Pac Dog Park - Large Dog",
    "latitude": 34.9013226,
    "longitude": -120.4423442,
    "state": "California",
    "stateAbbr": "CA",
    "tags": {
      "leisure": "dog_park",
      "name": "WOOF Pac Dog Park - Large Dog"
    }
  },
  {
    "id": 209078612,
    "name": "Dog Park",
    "latitude": 33.4802038,
    "longitude": -117.061651,
    "state": "California",
    "stateAbbr": "CA",
    "tags": {
      "barrier": "fence",
      "leisure": "dog_park",
      "source": "survey;public_record",
      "source_ref": "vvvexp97"
    }
  },
  {
    "id": 217375553,
    "name": "Conejo Creek Dog Park",
    "latitude": 34.2045522,
    "longitude": -118.8535227,
    "state": "California",
    "stateAbbr": "CA",
    "tags": {
      "addr:city": "Thousand Oaks",
      "addr:housenumber": "1350",
      "addr:postcode": "91360",
      "addr:state": "CA",
      "addr:street": "E Avenida de Los Arboles",
      "description": "The 3.5-acre dog park opened in June 2001. This special facility is designed for the benefit and enjoyment of our community's dogs and their human families.  The park has two separate sections, one for small dogs (30 lbs and under) and the other for large",
      "dog": "yes",
      "leisure": "dog_park",
      "name": "Conejo Creek Dog Park",
      "opening_hours": "Mo-Su 07:00-20:30",
      "operator": "Conejo Recreation and Parks District",
      "operator:type": "government_facility-public",
      "website": "https://www.crpd.org/parks-reservations/dog-parks/"
    }
  },
  {
    "id": 220013858,
    "name": "Mimi De Marta Dog Park",
    "latitude": 36.97094,
    "longitude": -122.0222053,
    "state": "California",
    "stateAbbr": "CA",
    "tags": {
      "dog": "yes",
      "leisure": "dog_park",
      "name": "Mimi De Marta Dog Park",
      "park:type": "city_park"
    }
  },
  {
    "id": 220802166,
    "name": "Dog Park",
    "latitude": 34.8511759,
    "longitude": -120.4207876,
    "state": "California",
    "stateAbbr": "CA",
    "tags": {
      "leisure": "dog_park"
    }
  },
  {
    "id": 238463089,
    "name": "Dog Park",
    "latitude": 36.1153924,
    "longitude": -115.2582079,
    "state": "California",
    "stateAbbr": "CA",
    "tags": {
      "addr:city": "Las Vegas",
      "addr:housenumber": "7600",
      "addr:postcode": "89147",
      "addr:state": "NV",
      "addr:street": "West Flamingo Road",
      "leisure": "dog_park",
      "operator": "Clark County Parks & Recreation"
    }
  },
  {
    "id": 239277153,
    "name": "Dog Park",
    "latitude": 34.0387102,
    "longitude": -117.2416792,
    "state": "California",
    "stateAbbr": "CA",
    "tags": {
      "leisure": "dog_park",
      "name": "Dog Park"
    }
  },
  {
    "id": 240887680,
    "name": "Silver Lake Dog Park",
    "latitude": 34.0922605,
    "longitude": -118.2645499,
    "state": "California",
    "stateAbbr": "CA",
    "tags": {
      "dog": "yes",
      "leisure": "dog_park",
      "name": "Silver Lake Dog Park"
    }
  },
  {
    "id": 242999447,
    "name": "Morley Field Dog Park",
    "latitude": 32.7388555,
    "longitude": -117.1424236,
    "state": "California",
    "stateAbbr": "CA",
    "tags": {
      "leisure": "dog_park",
      "name": "Morley Field Dog Park"
    }
  },
  {
    "id": 243003792,
    "name": "Grape Street Dog Park",
    "latitude": 32.7262079,
    "longitude": -117.1347974,
    "state": "California",
    "stateAbbr": "CA",
    "tags": {
      "leisure": "dog_park",
      "name": "Grape Street Dog Park"
    }
  },
  {
    "id": 245338813,
    "name": "Dog Park",
    "latitude": 33.4752368,
    "longitude": -117.1011463,
    "state": "California",
    "stateAbbr": "CA",
    "tags": {
      "barrier": "fence",
      "leisure": "dog_park",
      "surface": "grass"
    }
  },
  {
    "id": 249654585,
    "name": "Dog Park",
    "latitude": 37.7597544,
    "longitude": -122.4364863,
    "state": "California",
    "stateAbbr": "CA",
    "tags": {
      "leisure": "dog_park",
      "wheelchair": "no"
    }
  },
  {
    "id": 251442759,
    "name": "Dog Play Area",
    "latitude": 37.7696327,
    "longitude": -122.432351,
    "state": "California",
    "stateAbbr": "CA",
    "tags": {
      "leisure": "dog_park",
      "name": "Dog Play Area",
      "surface": "grass",
      "wheelchair": "yes"
    }
  },
  {
    "id": 255442602,
    "name": "The Hydrant Club",
    "latitude": 36.1676462,
    "longitude": -115.1363245,
    "state": "California",
    "stateAbbr": "CA",
    "tags": {
      "leisure": "dog_park",
      "name": "The Hydrant Club"
    }
  },
  {
    "id": 255497759,
    "name": "Dog Park",
    "latitude": 37.7713676,
    "longitude": -121.9192884,
    "state": "California",
    "stateAbbr": "CA",
    "tags": {
      "leisure": "dog_park"
    }
  },
  {
    "id": 261607632,
    "name": "Warm Springs Recreation Area Dog Park",
    "latitude": 38.71544,
    "longitude": -122.9978815,
    "state": "California",
    "stateAbbr": "CA",
    "tags": {
      "leisure": "dog_park",
      "name": "Warm Springs Recreation Area Dog Park"
    }
  },
  {
    "id": 264423564,
    "name": "Dog Park",
    "latitude": 37.4283276,
    "longitude": -122.0772168,
    "state": "California",
    "stateAbbr": "CA",
    "tags": {
      "leisure": "dog_park"
    }
  },
  {
    "id": 264552589,
    "name": "Dog Park",
    "latitude": 37.7403686,
    "longitude": -122.3759672,
    "state": "California",
    "stateAbbr": "CA",
    "tags": {
      "barrier": "fence",
      "leisure": "dog_park",
      "surface": "compacted"
    }
  },
  {
    "id": 265561808,
    "name": "Bark Park",
    "latitude": 34.1340013,
    "longitude": -118.7024587,
    "state": "California",
    "stateAbbr": "CA",
    "tags": {
      "leisure": "dog_park",
      "name": "Bark Park",
      "operator": "City of Calabasas",
      "park:type": "dog_park"
    }
  },
  {
    "id": 268204426,
    "name": "Woodland Off Leash Dog Park",
    "latitude": 38.6523858,
    "longitude": -121.7647195,
    "state": "California",
    "stateAbbr": "CA",
    "tags": {
      "leisure": "dog_park",
      "name": "Woodland Off Leash Dog Park"
    }
  },
  {
    "id": 270743192,
    "name": "Dog Park",
    "latitude": 37.9335926,
    "longitude": -122.0211295,
    "state": "California",
    "stateAbbr": "CA",
    "tags": {
      "leisure": "dog_park"
    }
  },
  {
    "id": 278141234,
    "name": "Lake Gregory Dog Park",
    "latitude": 34.2406655,
    "longitude": -117.2703886,
    "state": "California",
    "stateAbbr": "CA",
    "tags": {
      "leisure": "dog_park",
      "name": "Lake Gregory Dog Park"
    }
  },
  {
    "id": 288990502,
    "name": "Foster City Dog Park",
    "latitude": 37.5560974,
    "longitude": -122.2604251,
    "state": "California",
    "stateAbbr": "CA",
    "tags": {
      "leisure": "dog_park",
      "name": "Foster City Dog Park"
    }
  },
  {
    "id": 295144776,
    "name": "Rosie's Dog Beach",
    "latitude": 33.7553567,
    "longitude": -118.14127,
    "state": "California",
    "stateAbbr": "CA",
    "tags": {
      "leisure": "dog_park",
      "name": "Rosie's Dog Beach"
    }
  },
  {
    "id": 312015785,
    "name": "Claremont Pooch Park",
    "latitude": 34.0929637,
    "longitude": -117.7137467,
    "state": "California",
    "stateAbbr": "CA",
    "tags": {
      "barrier": "fence",
      "leisure": "dog_park",
      "name": "Claremont Pooch Park"
    }
  },
  {
    "id": 319354935,
    "name": "Dog Park",
    "latitude": 37.951457,
    "longitude": -121.9775475,
    "state": "California",
    "stateAbbr": "CA",
    "tags": {
      "access": "private",
      "leisure": "dog_park"
    }
  },
  {
    "id": 322133781,
    "name": "Olde Port Beach",
    "latitude": 35.177298,
    "longitude": -120.7489887,
    "state": "California",
    "stateAbbr": "CA",
    "tags": {
      "access": "yes",
      "leisure": "dog_park",
      "name": "Olde Port Beach",
      "natural": "beach",
      "surface": "sand"
    }
  },
  {
    "id": 328683326,
    "name": "Dog Park",
    "latitude": 35.6077875,
    "longitude": -120.6546786,
    "state": "California",
    "stateAbbr": "CA",
    "tags": {
      "leisure": "dog_park"
    }
  },
  {
    "id": 330457814,
    "name": "Dog Park",
    "latitude": 38.543413,
    "longitude": -121.7344082,
    "state": "California",
    "stateAbbr": "CA",
    "tags": {
      "leisure": "dog_park",
      "note": "Private dog park for tenants of The Arbors"
    }
  },
  {
    "id": 331479701,
    "name": "Dog Park",
    "latitude": 34.2470135,
    "longitude": -116.9001956,
    "state": "California",
    "stateAbbr": "CA",
    "tags": {
      "leisure": "dog_park"
    }
  },
  {
    "id": 334803824,
    "name": "Bark Park Dog Park",
    "latitude": 34.2489832,
    "longitude": -116.8061661,
    "state": "California",
    "stateAbbr": "CA",
    "tags": {
      "access": "yes",
      "addr:city": "Big Bear City",
      "addr:housenumber": "2080",
      "addr:postcode": "92314",
      "addr:state": "CA",
      "addr:street": "Erwin Ranch Road",
      "leisure": "dog_park",
      "name": "Bark Park Dog Park",
      "source": "USGS"
    }
  },
  {
    "id": 337626615,
    "name": "Canine Academy",
    "latitude": 35.4347957,
    "longitude": -120.6329148,
    "state": "California",
    "stateAbbr": "CA",
    "tags": {
      "leisure": "dog_park",
      "name": "Canine Academy",
      "website": "https://www.canineacademy.org/"
    }
  },
  {
    "id": 338511751,
    "name": "Dog Park",
    "latitude": 33.2651651,
    "longitude": -116.3657984,
    "state": "California",
    "stateAbbr": "CA",
    "tags": {
      "dog": "yes",
      "leisure": "dog_park",
      "name": "Dog Park"
    }
  },
  {
    "id": 342173574,
    "name": "Cambria Dog Park",
    "latitude": 35.5659011,
    "longitude": -121.0760626,
    "state": "California",
    "stateAbbr": "CA",
    "tags": {
      "access": "yes",
      "barrier": "fence",
      "leisure": "dog_park",
      "name": "Cambria Dog Park"
    }
  },
  {
    "id": 343081989,
    "name": "Barker Ranch Dog Park",
    "latitude": 33.6691845,
    "longitude": -117.6819081,
    "state": "California",
    "stateAbbr": "CA",
    "tags": {
      "access": "yes",
      "addr:city": "Lake Forest",
      "addr:housenumber": "25600",
      "addr:postcode": "92630",
      "addr:state": "CA",
      "addr:street": "Baffin Bay Drive",
      "leisure": "dog_park",
      "name": "Barker Ranch Dog Park",
      "name_1": "Lake Forest Dog Park"
    }
  },
  {
    "id": 343333796,
    "name": "La Paws Dog Park",
    "latitude": 33.5970252,
    "longitude": -117.638375,
    "state": "California",
    "stateAbbr": "CA",
    "tags": {
      "city": "Mission Viejo",
      "leisure": "dog_park",
      "name": "La Paws Dog Park"
    }
  },
  {
    "id": 345614722,
    "name": "Hap Magee Ranch Dog Park",
    "latitude": 37.8405128,
    "longitude": -122.0193944,
    "state": "California",
    "stateAbbr": "CA",
    "tags": {
      "access": "yes",
      "dog": "unleashed",
      "leisure": "dog_park",
      "name": "Hap Magee Ranch Dog Park",
      "note": "Closed On Tuesdays from Morning until Afternoon"
    }
  },
  {
    "id": 355424170,
    "name": "Wildcatters Dog Park",
    "latitude": 33.9275806,
    "longitude": -117.8489579,
    "state": "California",
    "stateAbbr": "CA",
    "tags": {
      "leisure": "dog_park",
      "name": "Wildcatters Dog Park"
    }
  },
  {
    "id": 356678085,
    "name": "L.A. LIVE Dog Park",
    "latitude": 34.0456821,
    "longitude": -118.2693342,
    "state": "California",
    "stateAbbr": "CA",
    "tags": {
      "addr:city": "Los Angeles",
      "addr:postcode": "90015",
      "addr:state": "CA",
      "addr:street": "L. A. Live Way",
      "leisure": "dog_park",
      "name": "L.A. LIVE Dog Park"
    }
  },
  {
    "id": 356987549,
    "name": "MacKay Bark Park",
    "latitude": 34.2647909,
    "longitude": -117.1634256,
    "state": "California",
    "stateAbbr": "CA",
    "tags": {
      "addr:city": "Lake Arrowhead",
      "addr:housenumber": "321",
      "addr:postcode": "92402",
      "addr:state": "CA",
      "addr:street": "Rouse Ranch Road",
      "leisure": "dog_park",
      "name": "MacKay Bark Park"
    }
  },
  {
    "id": 358551010,
    "name": "Discovery Dog Park",
    "latitude": 37.3283821,
    "longitude": -121.8958374,
    "state": "California",
    "stateAbbr": "CA",
    "tags": {
      "leisure": "dog_park",
      "name": "Discovery Dog Park",
      "operator": "City of San José"
    }
  },
  {
    "id": 365118609,
    "name": "Rick Barker Dog Park",
    "latitude": 33.741907,
    "longitude": -116.719407,
    "state": "California",
    "stateAbbr": "CA",
    "tags": {
      "leisure": "dog_park",
      "name": "Rick Barker Dog Park",
      "source": "Idyllwild Town Crier",
      "source_date": "Jun 15, 2017"
    }
  },
  {
    "id": 365931617,
    "name": "Oberrieder Dog Park",
    "latitude": 33.9720232,
    "longitude": -118.4205047,
    "state": "California",
    "stateAbbr": "CA",
    "tags": {
      "description": "Playa Vista 1 Dog Park",
      "leisure": "dog_park",
      "name": "Oberrieder Dog Park"
    }
  },
  {
    "id": 369575463,
    "name": "Crescenta Valley Dog Park",
    "latitude": 34.2264322,
    "longitude": -118.2587092,
    "state": "California",
    "stateAbbr": "CA",
    "tags": {
      "leisure": "dog_park",
      "name": "Crescenta Valley Dog Park"
    }
  },
  {
    "id": 370194350,
    "name": "Lone Mountain Dog Park",
    "latitude": 36.2407835,
    "longitude": -115.3100134,
    "state": "California",
    "stateAbbr": "CA",
    "tags": {
      "access": "yes",
      "leisure": "dog_park",
      "name": "Lone Mountain Dog Park"
    }
  },
  {
    "id": 370750720,
    "name": "Del Mar Dog Beach",
    "latitude": 32.973674,
    "longitude": -117.2698554,
    "state": "California",
    "stateAbbr": "CA",
    "tags": {
      "area": "yes",
      "leisure": "dog_park",
      "name": "Del Mar Dog Beach",
      "natural": "beach",
      "note": "The famous \"North Beach\" dog beach at Del Mar, open to dogs off leash Labor Day to June 15 and on leash in summer. The rest of Del Mar's two miles of beach are open to dogs on leash September through May, closing to dogs for the three summer months."
    }
  },
  {
    "id": 370756170,
    "name": "Huntington Dog Beach",
    "latitude": 33.6731885,
    "longitude": -118.0246289,
    "state": "California",
    "stateAbbr": "CA",
    "tags": {
      "leisure": "dog_park",
      "name": "Huntington Dog Beach",
      "note": "An whole glorious mile of Southern California beach where dogs can run off leash."
    }
  },
  {
    "id": 372533697,
    "name": "Elings Meadow",
    "latitude": 34.4257293,
    "longitude": -119.875867,
    "state": "California",
    "stateAbbr": "CA",
    "tags": {
      "access": "members",
      "leisure": "dog_park",
      "name": "Elings Meadow",
      "surface": "grass",
      "wheelchair": "yes"
    }
  },
  {
    "id": 373360110,
    "name": "Whitnall Highway Off-leash Dog Park",
    "latitude": 34.1773774,
    "longitude": -118.3634652,
    "state": "California",
    "stateAbbr": "CA",
    "tags": {
      "leisure": "dog_park",
      "name": "Whitnall Highway Off-leash Dog Park"
    }
  },
  {
    "id": 375333476,
    "name": "Walter Haas Dog Park",
    "latitude": 37.7404294,
    "longitude": -122.435395,
    "state": "California",
    "stateAbbr": "CA",
    "tags": {
      "leisure": "dog_park",
      "name": "Walter Haas Dog Park",
      "website": "https://sfrecpark.org/Facilities/Facility/Details/Walter-Haas-Dog-Play-Areas-28"
    }
  },
  {
    "id": 376010093,
    "name": "Green Belt",
    "latitude": 32.9689782,
    "longitude": -117.1366982,
    "state": "California",
    "stateAbbr": "CA",
    "tags": {
      "leisure": "dog_park",
      "name": "Green Belt"
    }
  },
  {
    "id": 382085619,
    "name": "Progress Park",
    "latitude": 37.7531898,
    "longitude": -122.3910735,
    "state": "California",
    "stateAbbr": "CA",
    "tags": {
      "leisure": "dog_park",
      "name": "Progress Park"
    }
  },
  {
    "id": 389128196,
    "name": "Golden Gate Park Dog Training Area",
    "latitude": 37.7710045,
    "longitude": -122.4995107,
    "state": "California",
    "stateAbbr": "CA",
    "tags": {
      "leisure": "dog_park",
      "name": "Golden Gate Park Dog Training Area",
      "operator": "San Francisco Recreation & Park Department",
      "operator:short": "SFRPD",
      "operator:website": "https://sfrecpark.org/",
      "operator:wikidata": "Q14683875",
      "website": "https://sfrecpark.org/Facilities/Facility/Details/GGP-Dog-Training-Area-13",
      "wheelchair": "yes"
    }
  },
  {
    "id": 391479062,
    "name": "Norma Rose Park",
    "latitude": 35.4359445,
    "longitude": -120.8861312,
    "state": "California",
    "stateAbbr": "CA",
    "tags": {
      "leisure": "dog_park",
      "name": "Norma Rose Park"
    }
  },
  {
    "id": 393293670,
    "name": "Dog Park",
    "latitude": 38.7443024,
    "longitude": -123.497756,
    "state": "California",
    "stateAbbr": "CA",
    "tags": {
      "leisure": "dog_park"
    }
  },
  {
    "id": 394756603,
    "name": "Large Dogs",
    "latitude": 33.9877828,
    "longitude": -117.4280868,
    "state": "California",
    "stateAbbr": "CA",
    "tags": {
      "barrier": "fence",
      "fence_type": "metal",
      "leisure": "dog_park",
      "lit": "yes",
      "name": "Large Dogs"
    }
  },
  {
    "id": 394756613,
    "name": "Small Dogs",
    "latitude": 33.9867288,
    "longitude": -117.4292057,
    "state": "California",
    "stateAbbr": "CA",
    "tags": {
      "barrier": "fence",
      "fence_type": "metal",
      "leisure": "dog_park",
      "lit": "yes",
      "name": "Small Dogs"
    }
  },
  {
    "id": 394999276,
    "name": "Ward Canyon Dog Park",
    "latitude": 32.7614278,
    "longitude": -117.1098801,
    "state": "California",
    "stateAbbr": "CA",
    "tags": {
      "leisure": "dog_park",
      "name": "Ward Canyon Dog Park"
    }
  },
  {
    "id": 395487345,
    "name": "Dog Park",
    "latitude": 37.6894843,
    "longitude": -122.4954073,
    "state": "California",
    "stateAbbr": "CA",
    "tags": {
      "leisure": "dog_park"
    }
  },
  {
    "id": 395490068,
    "name": "Dog Park",
    "latitude": 37.70776,
    "longitude": -122.4411533,
    "state": "California",
    "stateAbbr": "CA",
    "tags": {
      "leisure": "dog_park"
    }
  },
  {
    "id": 396592732,
    "name": "Bark Park",
    "latitude": 37.6841666,
    "longitude": -122.4630016,
    "state": "California",
    "stateAbbr": "CA",
    "tags": {
      "fenced": "yes",
      "leisure": "dog_park",
      "lit": "no",
      "name": "Bark Park",
      "opening_hours": "sunrise-sunset",
      "website": "https://www.colma.ca.gov/park-facilities/"
    }
  },
  {
    "id": 397739350,
    "name": "Commodore Park Dog Exercise Area",
    "latitude": 37.6312743,
    "longitude": -122.4251559,
    "state": "California",
    "stateAbbr": "CA",
    "tags": {
      "barrier": "fence",
      "leisure": "dog_park",
      "name": "Commodore Park Dog Exercise Area",
      "source": "local knowledge"
    }
  },
  {
    "id": 400027798,
    "name": "Dog Park",
    "latitude": 33.7328494,
    "longitude": -116.3820608,
    "state": "California",
    "stateAbbr": "CA",
    "tags": {
      "access": "yes",
      "description": "The park has a section designated for large and small dogs. Small dogs are dogs that are 25 pounds or less.",
      "dog": "unleashed",
      "leisure": "dog_park",
      "operator": "City of Palm Desert",
      "operator:type": "public/government",
      "website": "https://www.palmdesert.gov/our-city/departments/parks-recreation/sports-and-activities"
    }
  },
  {
    "id": 400834980,
    "name": "Dog Park",
    "latitude": 37.7082381,
    "longitude": -121.7946419,
    "state": "California",
    "stateAbbr": "CA",
    "tags": {
      "barrier": "fence",
      "large_dog": "designated",
      "leisure": "dog_park"
    }
  },
  {
    "id": 402057200,
    "name": "Dog Park",
    "latitude": 38.5593327,
    "longitude": -121.7470146,
    "state": "California",
    "stateAbbr": "CA",
    "tags": {
      "leisure": "dog_park"
    }
  },
  {
    "id": 402067892,
    "name": "Dog Park",
    "latitude": 37.7327469,
    "longitude": -122.4208916,
    "state": "California",
    "stateAbbr": "CA",
    "tags": {
      "barrier": "fence",
      "leisure": "dog_park"
    }
  },
  {
    "id": 402541278,
    "name": "Dog Park",
    "latitude": 33.8894577,
    "longitude": -118.3863628,
    "state": "California",
    "stateAbbr": "CA",
    "tags": {
      "leisure": "dog_park"
    }
  },
  {
    "id": 403139589,
    "name": "Summerfield Park Dog Area",
    "latitude": 38.5443716,
    "longitude": -121.5574585,
    "state": "California",
    "stateAbbr": "CA",
    "tags": {
      "description": "Fenced Area at North end of Park, seperate area for large and small dogs.",
      "leisure": "dog_park",
      "name": "Summerfield Park Dog Area"
    }
  },
  {
    "id": 408903501,
    "name": "Biggest Little Dog Park",
    "latitude": 39.5279423,
    "longitude": -119.8157058,
    "state": "California",
    "stateAbbr": "CA",
    "tags": {
      "leisure": "dog_park",
      "name": "Biggest Little Dog Park"
    }
  },
  {
    "id": 409350601,
    "name": "Dog Park",
    "latitude": 36.4555299,
    "longitude": -116.8672983,
    "state": "California",
    "stateAbbr": "CA",
    "tags": {
      "access": "private",
      "leisure": "dog_park"
    }
  },
  {
    "id": 411149478,
    "name": "City Hall Dog Park",
    "latitude": 37.5046595,
    "longitude": -122.2629996,
    "state": "California",
    "stateAbbr": "CA",
    "tags": {
      "access": "yes",
      "addr:city": "San Carlos",
      "addr:housenumber": "1401",
      "addr:postcode": "94070",
      "addr:state": "CA",
      "addr:street": "San Carlos Avenue",
      "dog": "unleashed",
      "leisure": "dog_park",
      "name": "City Hall Dog Park",
      "operator": "City of San Carlos",
      "operator:type": "public",
      "website": "https://www.cityofsancarlos.org/business_detail_T10_R48.php"
    }
  },
  {
    "id": 417072061,
    "name": "Dog Park",
    "latitude": 37.3203538,
    "longitude": -121.9039118,
    "state": "California",
    "stateAbbr": "CA",
    "tags": {
      "leisure": "dog_park"
    }
  },
  {
    "id": 417184097,
    "name": "Joby's Dog Run",
    "latitude": 37.7424666,
    "longitude": -122.4273908,
    "state": "California",
    "stateAbbr": "CA",
    "tags": {
      "access": "yes",
      "addr:city": "San Francisco",
      "dog": "yes",
      "leisure": "dog_park",
      "name": "Joby's Dog Run",
      "operator": "San Francisco Recreation & Park Department",
      "operator:short": "SFRPD",
      "operator:type": "government",
      "operator:website": "https://sfrecpark.org/",
      "operator:wikidata": "Q14683875",
      "website": "https://sfrecpark.org/Facilities/Facility/Details/Upper-Noe-Dog-Play-Area-27"
    }
  },
  {
    "id": 421567986,
    "name": "Dog Park",
    "latitude": 37.777249,
    "longitude": -122.4061212,
    "state": "California",
    "stateAbbr": "CA",
    "tags": {
      "leisure": "dog_park",
      "surface": "grass"
    }
  },
  {
    "id": 423254177,
    "name": "Link Piazzo Dog Park",
    "latitude": 39.4864904,
    "longitude": -119.7141093,
    "state": "California",
    "stateAbbr": "CA",
    "tags": {
      "barrier": "fence",
      "leisure": "dog_park",
      "name": "Link Piazzo Dog Park",
      "operator": "Washoe County"
    }
  },
  {
    "id": 427290243,
    "name": "Off-leash Dog Area",
    "latitude": 37.7149751,
    "longitude": -122.4275938,
    "state": "California",
    "stateAbbr": "CA",
    "tags": {
      "leisure": "dog_park",
      "name": "Off-leash Dog Area"
    }
  },
  {
    "id": 428980018,
    "name": "Dog Park",
    "latitude": 36.0104303,
    "longitude": -115.1642664,
    "state": "California",
    "stateAbbr": "CA",
    "tags": {
      "barrier": "fence",
      "leisure": "dog_park"
    }
  },
  {
    "id": 431491855,
    "name": "Dog Park",
    "latitude": 33.610075,
    "longitude": -117.6142316,
    "state": "California",
    "stateAbbr": "CA",
    "tags": {
      "area": "yes",
      "leisure": "dog_park",
      "surface": "dirt"
    }
  },
  {
    "id": 440425182,
    "name": "Dog Park",
    "latitude": 32.9603088,
    "longitude": -117.2224758,
    "state": "California",
    "stateAbbr": "CA",
    "tags": {
      "leisure": "dog_park",
      "wheelchair": "yes"
    }
  },
  {
    "id": 440872582,
    "name": "Main Street Dog Park",
    "latitude": 37.7901143,
    "longitude": -122.2960664,
    "state": "California",
    "stateAbbr": "CA",
    "tags": {
      "leisure": "dog_park",
      "name": "Main Street Dog Park"
    }
  },
  {
    "id": 440874983,
    "name": "Alameda Small Dog Park",
    "latitude": 37.7677138,
    "longitude": -122.2726423,
    "state": "California",
    "stateAbbr": "CA",
    "tags": {
      "description": "Park for small dogs only",
      "leisure": "dog_park",
      "name": "Alameda Small Dog Park"
    }
  },
  {
    "id": 441365536,
    "name": "Arbor Dog Park",
    "latitude": 33.7833923,
    "longitude": -118.0480367,
    "state": "California",
    "stateAbbr": "CA",
    "tags": {
      "barrier": "fence",
      "fence_type": "chain_link",
      "leisure": "dog_park",
      "name": "Arbor Dog Park"
    }
  },
  {
    "id": 441659228,
    "name": "Dog Park",
    "latitude": 37.5620421,
    "longitude": -122.2689991,
    "state": "California",
    "stateAbbr": "CA",
    "tags": {
      "leisure": "dog_park"
    }
  },
  {
    "id": 441998170,
    "name": "Dog Park",
    "latitude": 33.5209412,
    "longitude": -117.6147902,
    "state": "California",
    "stateAbbr": "CA",
    "tags": {
      "access": "private",
      "barrier": "fence",
      "leisure": "dog_park"
    }
  },
  {
    "id": 447878269,
    "name": "Airport Dog Park",
    "latitude": 34.0171376,
    "longitude": -118.4447054,
    "state": "California",
    "stateAbbr": "CA",
    "tags": {
      "leisure": "dog_park",
      "name": "Airport Dog Park"
    }
  },
  {
    "id": 447940502,
    "name": "Dog Park",
    "latitude": 38.5844874,
    "longitude": -121.4655651,
    "state": "California",
    "stateAbbr": "CA",
    "tags": {
      "barrier": "fence",
      "leisure": "dog_park",
      "lit": "no",
      "surface": "gravel, bark"
    }
  },
  {
    "id": 448007543,
    "name": "Pacific Street Dog Park",
    "latitude": 34.0056079,
    "longitude": -118.4878409,
    "state": "California",
    "stateAbbr": "CA",
    "tags": {
      "leisure": "dog_park",
      "name": "Pacific Street Dog Park"
    }
  },
  {
    "id": 448254812,
    "name": "Dog Park",
    "latitude": 37.9577351,
    "longitude": -122.0207829,
    "state": "California",
    "stateAbbr": "CA",
    "tags": {
      "leisure": "dog_park"
    }
  },
  {
    "id": 450900118,
    "name": "Tanzanite Dog Park",
    "latitude": 38.6308756,
    "longitude": -121.5111972,
    "state": "California",
    "stateAbbr": "CA",
    "tags": {
      "leisure": "dog_park",
      "name": "Tanzanite Dog Park"
    }
  },
  {
    "id": 451416884,
    "name": "Dog Park",
    "latitude": 33.2103259,
    "longitude": -117.392898,
    "state": "California",
    "stateAbbr": "CA",
    "tags": {
      "leisure": "dog_park"
    }
  },
  {
    "id": 451968266,
    "name": "Villa Dog Park",
    "latitude": 38.6224553,
    "longitude": -122.8482048,
    "state": "California",
    "stateAbbr": "CA",
    "tags": {
      "description": "\"large\" dog park, water shade",
      "leisure": "dog_park",
      "name": "Villa Dog Park"
    }
  },
  {
    "id": 456440322,
    "name": "Village Green Dog Park",
    "latitude": 37.4032555,
    "longitude": -122.1104581,
    "state": "California",
    "stateAbbr": "CA",
    "tags": {
      "barrier": "fence",
      "leisure": "dog_park",
      "name": "Village Green Dog Park",
      "wheelchair": "yes"
    }
  },
  {
    "id": 460494855,
    "name": "Dog Park",
    "latitude": 37.8257856,
    "longitude": -122.2686331,
    "state": "California",
    "stateAbbr": "CA",
    "tags": {
      "leisure": "dog_park"
    }
  },
  {
    "id": 461255521,
    "name": "Dog Park",
    "latitude": 33.0578929,
    "longitude": -117.2449779,
    "state": "California",
    "stateAbbr": "CA",
    "tags": {
      "leisure": "dog_park"
    }
  },
  {
    "id": 461305420,
    "name": "Dog Park",
    "latitude": 33.7436491,
    "longitude": -116.8943729,
    "state": "California",
    "stateAbbr": "CA",
    "tags": {
      "leisure": "dog_park"
    }
  },
  {
    "id": 461409747,
    "name": "Dog Park",
    "latitude": 38.5581789,
    "longitude": -121.388872,
    "state": "California",
    "stateAbbr": "CA",
    "tags": {
      "leisure": "dog_park"
    }
  },
  {
    "id": 461504329,
    "name": "Dog Park",
    "latitude": 36.0337569,
    "longitude": -114.9545514,
    "state": "California",
    "stateAbbr": "CA",
    "tags": {
      "leisure": "dog_park"
    }
  },
  {
    "id": 461732040,
    "name": "Dog Park",
    "latitude": 33.623066,
    "longitude": -117.5804529,
    "state": "California",
    "stateAbbr": "CA",
    "tags": {
      "leisure": "dog_park"
    }
  },
  {
    "id": 461989745,
    "name": "Dog Park",
    "latitude": 34.12522,
    "longitude": -117.8555972,
    "state": "California",
    "stateAbbr": "CA",
    "tags": {
      "leisure": "dog_park",
      "wheelchair": "yes"
    }
  },
  {
    "id": 463023501,
    "name": "Dog Park",
    "latitude": 36.6982499,
    "longitude": -121.6077347,
    "state": "California",
    "stateAbbr": "CA",
    "tags": {
      "dog": "yes",
      "leisure": "dog_park",
      "source": "local knowledge"
    }
  },
  {
    "id": 463573512,
    "name": "Dog Park",
    "latitude": 37.6347815,
    "longitude": -122.0960417,
    "state": "California",
    "stateAbbr": "CA",
    "tags": {
      "leisure": "dog_park"
    }
  },
  {
    "id": 464058827,
    "name": "Meanley Dog Park",
    "latitude": 32.9090412,
    "longitude": -117.1046697,
    "state": "California",
    "stateAbbr": "CA",
    "tags": {
      "access": "permissive",
      "addr:city": "San Diego",
      "addr:country": "US",
      "addr:housenumber": "10275",
      "addr:postcode": "92131",
      "addr:state": "CA",
      "addr:street": "Meanley Drive",
      "leisure": "dog_park",
      "name": "Meanley Dog Park",
      "source": "SanGIS Addresses Public Domain (http://www.sangis.org/)"
    }
  },
  {
    "id": 464214847,
    "name": "Central Bark Dog Park (Del Norte Park)",
    "latitude": 34.0785597,
    "longitude": -117.9373174,
    "state": "California",
    "stateAbbr": "CA",
    "tags": {
      "addr:city": "west covina",
      "addr:housenumber": "1500",
      "addr:postcode": "91790",
      "addr:state": "CA",
      "addr:street": "West Rowland Avenue",
      "leisure": "dog_park",
      "name": "Central Bark Dog Park (Del Norte Park)"
    }
  },
  {
    "id": 465063655,
    "name": "San Dimas Dog Park",
    "latitude": 34.1270758,
    "longitude": -117.801694,
    "state": "California",
    "stateAbbr": "CA",
    "tags": {
      "leisure": "dog_park",
      "name": "San Dimas Dog Park"
    }
  },
  {
    "id": 466463899,
    "name": "Joaquin Miller Large Dog Park",
    "latitude": 37.8105782,
    "longitude": -122.1874612,
    "state": "California",
    "stateAbbr": "CA",
    "tags": {
      "leisure": "dog_park",
      "name": "Joaquin Miller Large Dog Park",
      "source": "Bing"
    }
  },
  {
    "id": 466463901,
    "name": "Joaquin Miller Small Dog Park",
    "latitude": 37.8105089,
    "longitude": -122.187813,
    "state": "California",
    "stateAbbr": "CA",
    "tags": {
      "leisure": "dog_park",
      "name": "Joaquin Miller Small Dog Park",
      "source": "Bing"
    }
  },
  {
    "id": 468491797,
    "name": "Dog Park",
    "latitude": 38.5410025,
    "longitude": -121.4054594,
    "state": "California",
    "stateAbbr": "CA",
    "tags": {
      "leisure": "dog_park"
    }
  },
  {
    "id": 468557439,
    "name": "Dog Park",
    "latitude": 36.0305527,
    "longitude": -115.0160719,
    "state": "California",
    "stateAbbr": "CA",
    "tags": {
      "leisure": "dog_park"
    }
  },
  {
    "id": 468619330,
    "name": "City of Brisbane Dog Park",
    "latitude": 37.6869454,
    "longitude": -122.403963,
    "state": "California",
    "stateAbbr": "CA",
    "tags": {
      "addr:city": "Brisbane",
      "addr:housenumber": "173",
      "addr:postcode": "94005",
      "addr:state": "CA",
      "addr:street": "Park Lane",
      "leisure": "dog_park",
      "name": "City of Brisbane Dog Park"
    }
  },
  {
    "id": 468782661,
    "name": "Dog Park",
    "latitude": 36.0238441,
    "longitude": -115.0254781,
    "state": "California",
    "stateAbbr": "CA",
    "tags": {
      "leisure": "dog_park"
    }
  },
  {
    "id": 469164155,
    "name": "Pinole Dog Park",
    "latitude": 37.9796635,
    "longitude": -122.2690771,
    "state": "California",
    "stateAbbr": "CA",
    "tags": {
      "leisure": "dog_park",
      "name": "Pinole Dog Park"
    }
  },
  {
    "id": 469219899,
    "name": "Dog Park",
    "latitude": 32.7303573,
    "longitude": -117.0442636,
    "state": "California",
    "stateAbbr": "CA",
    "tags": {
      "leisure": "dog_park"
    }
  },
  {
    "id": 469338285,
    "name": "East Campus Dog Park",
    "latitude": 36.6612484,
    "longitude": -121.7646969,
    "state": "California",
    "stateAbbr": "CA",
    "tags": {
      "barrier": "fence",
      "fence_type": "chain_link",
      "leisure": "dog_park",
      "name": "East Campus Dog Park"
    }
  },
  {
    "id": 469341801,
    "name": "Dog Park",
    "latitude": 33.7413623,
    "longitude": -116.307663,
    "state": "California",
    "stateAbbr": "CA",
    "tags": {
      "leisure": "dog_park"
    }
  },
  {
    "id": 469568200,
    "name": "Dog Park",
    "latitude": 32.660406,
    "longitude": -116.9533923,
    "state": "California",
    "stateAbbr": "CA",
    "tags": {
      "leisure": "dog_park"
    }
  },
  {
    "id": 469589132,
    "name": "Dog Park",
    "latitude": 34.014384,
    "longitude": -117.0053697,
    "state": "California",
    "stateAbbr": "CA",
    "tags": {
      "leisure": "dog_park"
    }
  },
  {
    "id": 469800944,
    "name": "Hagan Community Dog Park",
    "latitude": 38.6049196,
    "longitude": -121.3113023,
    "state": "California",
    "stateAbbr": "CA",
    "tags": {
      "leisure": "dog_park",
      "name": "Hagan Community Dog Park"
    }
  },
  {
    "id": 470410915,
    "name": "Dog Park",
    "latitude": 37.94549,
    "longitude": -121.7203679,
    "state": "California",
    "stateAbbr": "CA",
    "tags": {
      "leisure": "dog_park"
    }
  },
  {
    "id": 470474199,
    "name": "Camden Crown Valley Dog Park",
    "latitude": 33.5642914,
    "longitude": -117.6678835,
    "state": "California",
    "stateAbbr": "CA",
    "tags": {
      "leisure": "dog_park",
      "name": "Camden Crown Valley Dog Park"
    }
  },
  {
    "id": 471602663,
    "name": "Whittier Dog Club",
    "latitude": 33.979421,
    "longitude": -118.046187,
    "state": "California",
    "stateAbbr": "CA",
    "tags": {
      "building:units": "5",
      "ele": "87.3",
      "height": "6.4",
      "lacounty:ain": "8140028006",
      "lacounty:bld_id": "547718814894",
      "leisure": "dog_park",
      "name": "Whittier Dog Club",
      "start_date": "1910",
      "website": "https://whittierdogclub.net/"
    }
  },
  {
    "id": 474953114,
    "name": "Dog Park",
    "latitude": 34.1567899,
    "longitude": -118.0866657,
    "state": "California",
    "stateAbbr": "CA",
    "tags": {
      "leisure": "dog_park"
    }
  },
  {
    "id": 475534033,
    "name": "University Dog Park",
    "latitude": 38.5620816,
    "longitude": -121.4084072,
    "state": "California",
    "stateAbbr": "CA",
    "tags": {
      "leisure": "dog_park",
      "name": "University Dog Park"
    }
  },
  {
    "id": 475593329,
    "name": "Dog Park",
    "latitude": 37.5907756,
    "longitude": -122.005159,
    "state": "California",
    "stateAbbr": "CA",
    "tags": {
      "leisure": "dog_park"
    }
  },
  {
    "id": 475938938,
    "name": "Dog Park at A Place to Play",
    "latitude": 38.4392957,
    "longitude": -122.7609604,
    "state": "California",
    "stateAbbr": "CA",
    "tags": {
      "barrier": "fence",
      "landuse": "grass",
      "leisure": "dog_park",
      "name": "Dog Park at A Place to Play"
    }
  },
  {
    "id": 477219116,
    "name": "Dog Park",
    "latitude": 36.2070692,
    "longitude": -115.013906,
    "state": "California",
    "stateAbbr": "CA",
    "tags": {
      "leisure": "dog_park"
    }
  },
  {
    "id": 478197966,
    "name": "Veterans Memorial Dog Park",
    "latitude": 38.1556432,
    "longitude": -122.2525394,
    "state": "California",
    "stateAbbr": "CA",
    "tags": {
      "leisure": "dog_park",
      "name": "Veterans Memorial Dog Park"
    }
  },
  {
    "id": 478343006,
    "name": "Virginia Lake Dog Park",
    "latitude": 39.4979287,
    "longitude": -119.8086943,
    "state": "California",
    "stateAbbr": "CA",
    "tags": {
      "addr:city": "Reno",
      "addr:housenumber": "102",
      "addr:postcode": "89509",
      "addr:state": "NV",
      "addr:street": "Mountain View Drive",
      "leisure": "dog_park",
      "name": "Virginia Lake Dog Park"
    }
  },
  {
    "id": 479542584,
    "name": "Barkin' Basin Dog Park",
    "latitude": 36.2306594,
    "longitude": -115.2530517,
    "state": "California",
    "stateAbbr": "CA",
    "tags": {
      "addr:city": "Las Vegas",
      "addr:postcode": "89129",
      "addr:state": "NV",
      "addr:street": "North Tenaya Way",
      "description": "Pet recreation area on 7.75 acres, with 3 separate fenced spaces, shady seating & water fountains",
      "leisure": "dog_park",
      "name": "Barkin' Basin Dog Park"
    }
  },
  {
    "id": 479604075,
    "name": "Pacheco Dog Park",
    "latitude": 36.9915173,
    "longitude": -122.0025854,
    "state": "California",
    "stateAbbr": "CA",
    "tags": {
      "barrier": "fence",
      "dog": "yes",
      "fixme": "The fence might not be exactly around the precise boundary of the park",
      "leisure": "dog_park",
      "name": "Pacheco Dog Park",
      "park:type": "city_park"
    }
  },
  {
    "id": 479611451,
    "name": "Bark Park",
    "latitude": 37.0496306,
    "longitude": -122.0308045,
    "state": "California",
    "stateAbbr": "CA",
    "tags": {
      "ACCESS_TYP": "Open Access",
      "ACRES": "22.469",
      "AGNCY_ID": "1328",
      "AGNCY_LEV": "City",
      "AGNCY_NAME": "Scotts Valley, City of",
      "AGNCY_TYP": "City Agency",
      "AGNCY_WEB": "http://www.scottsvalley.org/parks/parks_recs.html",
      "COUNTY": "Santa Cruz",
      "MNG_AGENCY": "Scotts Valley, City of",
      "MNG_AG_ID": "1328",
      "SUID_NMA": "25545",
      "UNIT_ID": "885",
      "UNIT_NAME": "Skypark",
      "dog": "yes",
      "leisure": "dog_park",
      "name": "Bark Park",
      "park:type": "city_park",
      "source": "California Protected Areas Database (CPAD) – www.calands.org (December 2016)"
    }
  },
  {
    "id": 479612820,
    "name": "Dog Park",
    "latitude": 37.4127502,
    "longitude": -121.9622861,
    "state": "California",
    "stateAbbr": "CA",
    "tags": {
      "access": "private",
      "barrier": "fence",
      "leisure": "dog_park"
    }
  },
  {
    "id": 479973735,
    "name": "Dog Park",
    "latitude": 33.2174727,
    "longitude": -117.2581476,
    "state": "California",
    "stateAbbr": "CA",
    "tags": {
      "leisure": "dog_park"
    }
  },
  {
    "id": 480149175,
    "name": "Buena Vista Dog Run",
    "latitude": 37.7687283,
    "longitude": -122.442784,
    "state": "California",
    "stateAbbr": "CA",
    "tags": {
      "leisure": "dog_park",
      "name": "Buena Vista Dog Run"
    }
  },
  {
    "id": 480957436,
    "name": "Dog Park",
    "latitude": 39.5302036,
    "longitude": -119.7282924,
    "state": "California",
    "stateAbbr": "CA",
    "tags": {
      "leisure": "dog_park"
    }
  },
  {
    "id": 481088972,
    "name": "Woodglen Dog Park",
    "latitude": 32.8674023,
    "longitude": -116.9750755,
    "state": "California",
    "stateAbbr": "CA",
    "tags": {
      "area": "yes",
      "leisure": "dog_park",
      "name": "Woodglen Dog Park"
    }
  },
  {
    "id": 481690299,
    "name": "Eureka Dog Park",
    "latitude": 40.7889598,
    "longitude": -124.142663,
    "state": "California",
    "stateAbbr": "CA",
    "tags": {
      "access": "yes",
      "addr:city": "Eureka",
      "addr:housenumber": "2020",
      "addr:postcode": "95501",
      "addr:state": "CA",
      "addr:street": "Watson Drive",
      "leisure": "dog_park",
      "name": "Eureka Dog Park",
      "park:type": "city_park"
    }
  },
  {
    "id": 481848843,
    "name": "Fortuna Dog Park",
    "latitude": 40.5879144,
    "longitude": -124.1563627,
    "state": "California",
    "stateAbbr": "CA",
    "tags": {
      "addr:city": "Fortuna",
      "addr:housenumber": "100",
      "addr:postcode": "95540",
      "addr:state": "CA",
      "addr:street": "Dinsmore Drive",
      "leisure": "dog_park",
      "name": "Fortuna Dog Park",
      "park:type": "city_park"
    }
  },
  {
    "id": 483144756,
    "name": "Rancho San Rafael Dog Park",
    "latitude": 39.5496798,
    "longitude": -119.8317018,
    "state": "California",
    "stateAbbr": "CA",
    "tags": {
      "landcover": "grass",
      "landuse": "park",
      "leisure": "dog_park",
      "name": "Rancho San Rafael Dog Park"
    }
  },
  {
    "id": 483866242,
    "name": "Dog Park",
    "latitude": 33.873531,
    "longitude": -118.3769565,
    "state": "California",
    "stateAbbr": "CA",
    "tags": {
      "leisure": "dog_park",
      "surface": "grass",
      "wheelchair": "no"
    }
  },
  {
    "id": 484983162,
    "name": "DeTurk Dog Park",
    "latitude": 38.4404902,
    "longitude": -122.7250939,
    "state": "California",
    "stateAbbr": "CA",
    "tags": {
      "barrier": "fence",
      "leisure": "dog_park",
      "name": "DeTurk Dog Park",
      "wheelchair": "limited"
    }
  },
  {
    "id": 485968805,
    "name": "Bark Park",
    "latitude": 38.5882333,
    "longitude": -121.4900171,
    "state": "California",
    "stateAbbr": "CA",
    "tags": {
      "access": "private",
      "leisure": "dog_park",
      "name": "Bark Park",
      "operator": "The Creamery at Alkali Flat",
      "operator:type": "private"
    }
  },
  {
    "id": 486659588,
    "name": "Groveland Dog Park",
    "latitude": 37.8497981,
    "longitude": -120.2268151,
    "state": "California",
    "stateAbbr": "CA",
    "tags": {
      "leisure": "dog_park",
      "name": "Groveland Dog Park"
    }
  },
  {
    "id": 486666540,
    "name": "Dog Park",
    "latitude": 36.5967663,
    "longitude": -121.887403,
    "state": "California",
    "stateAbbr": "CA",
    "tags": {
      "leisure": "dog_park"
    }
  },
  {
    "id": 491747256,
    "name": "Dog Park",
    "latitude": 34.0117543,
    "longitude": -117.7902373,
    "state": "California",
    "stateAbbr": "CA",
    "tags": {
      "leisure": "dog_park"
    }
  },
  {
    "id": 493361201,
    "name": "Sky's Dog Park",
    "latitude": 38.6146334,
    "longitude": -121.5041528,
    "state": "California",
    "stateAbbr": "CA",
    "tags": {
      "leisure": "dog_park",
      "name": "Sky's Dog Park"
    }
  },
  {
    "id": 493364054,
    "name": "Dog Park",
    "latitude": 38.6051115,
    "longitude": -121.4142575,
    "state": "California",
    "stateAbbr": "CA",
    "tags": {
      "leisure": "dog_park"
    }
  },
  {
    "id": 494041472,
    "name": "Whitaker Park Dog Park",
    "latitude": 39.532499,
    "longitude": -119.8236981,
    "state": "California",
    "stateAbbr": "CA",
    "tags": {
      "leisure": "dog_park",
      "name": "Whitaker Park Dog Park",
      "wheelchair": "no"
    }
  },
  {
    "id": 496389989,
    "name": "Hart’s Dog Park",
    "latitude": 37.3344393,
    "longitude": -121.8934129,
    "state": "California",
    "stateAbbr": "CA",
    "tags": {
      "leisure": "dog_park",
      "name": "Hart’s Dog Park"
    }
  },
  {
    "id": 498945335,
    "name": "Dog Park",
    "latitude": 37.7783122,
    "longitude": -122.2817687,
    "state": "California",
    "stateAbbr": "CA",
    "tags": {
      "leisure": "dog_park",
      "name": "Dog Park"
    }
  },
  {
    "id": 500016942,
    "name": "Bair Island Marina Dog Park",
    "latitude": 37.498344,
    "longitude": -122.2215358,
    "state": "California",
    "stateAbbr": "CA",
    "tags": {
      "addr:city": "Redwood City",
      "addr:housenumber": "702",
      "addr:postcode": "94063",
      "addr:state": "CA",
      "addr:street": "Bair Island Road",
      "description": "Dog park",
      "ele": "5",
      "leisure": "dog_park",
      "name": "Bair Island Marina Dog Park"
    }
  },
  {
    "id": 504900129,
    "name": "RRUFF Dog Park",
    "latitude": 38.7897584,
    "longitude": -121.2469126,
    "state": "California",
    "stateAbbr": "CA",
    "tags": {
      "barrier": "fence",
      "leisure": "dog_park",
      "name": "RRUFF Dog Park",
      "opening_hours": "sunrise-sunset",
      "wheelchair": "yes"
    }
  },
  {
    "id": 511828041,
    "name": "Benton Dog Park",
    "latitude": 40.5777217,
    "longitude": -122.4065887,
    "state": "California",
    "stateAbbr": "CA",
    "tags": {
      "leisure": "dog_park",
      "name": "Benton Dog Park"
    }
  },
  {
    "id": 514077542,
    "name": "Mary Avenue Dog Park",
    "latitude": 37.3275421,
    "longitude": -122.0508624,
    "state": "California",
    "stateAbbr": "CA",
    "tags": {
      "leisure": "dog_park",
      "name": "Mary Avenue Dog Park"
    }
  },
  {
    "id": 520624012,
    "name": "Beverly Hills Dog Park",
    "latitude": 34.0749929,
    "longitude": -118.3957077,
    "state": "California",
    "stateAbbr": "CA",
    "tags": {
      "addr:city": "Beverly Hills",
      "addr:housenumber": "344",
      "addr:postcode": "90210",
      "addr:state": "CA",
      "addr:street": "N Foothill Road",
      "leisure": "dog_park",
      "name": "Beverly Hills Dog Park",
      "opening_hours": "08:00-20:00"
    }
  },
  {
    "id": 526619236,
    "name": "Paso Nogal Dog Park",
    "latitude": 37.9663646,
    "longitude": -122.089262,
    "state": "California",
    "stateAbbr": "CA",
    "tags": {
      "leisure": "dog_park",
      "name": "Paso Nogal Dog Park"
    }
  },
  {
    "id": 527654156,
    "name": "Saratoga Creek Dog Park",
    "latitude": 37.2958489,
    "longitude": -121.9969387,
    "state": "California",
    "stateAbbr": "CA",
    "tags": {
      "leisure": "dog_park",
      "name": "Saratoga Creek Dog Park"
    }
  },
  {
    "id": 533472523,
    "name": "Dog Park",
    "latitude": 38.181002,
    "longitude": -122.14149,
    "state": "California",
    "stateAbbr": "CA",
    "tags": {
      "barrier": "fence",
      "leisure": "dog_park"
    }
  },
  {
    "id": 533472527,
    "name": "Dog Park",
    "latitude": 38.1785174,
    "longitude": -122.1427666,
    "state": "California",
    "stateAbbr": "CA",
    "tags": {
      "barrier": "fence",
      "leisure": "dog_park"
    }
  },
  {
    "id": 536988960,
    "name": "Sacramento County Animal Shelter Off Leash Dog Park",
    "latitude": 38.5534265,
    "longitude": -121.3354372,
    "state": "California",
    "stateAbbr": "CA",
    "tags": {
      "addr:city": "Sacramento",
      "addr:housenumber": "3839",
      "addr:postcode": "95827",
      "addr:state": "CA",
      "addr:street": "Bradshaw Road",
      "description": "Two dog parks, for both small and large breeds.",
      "leisure": "dog_park",
      "name": "Sacramento County Animal Shelter Off Leash Dog Park"
    }
  },
  {
    "id": 543955062,
    "name": "Regency Community Park Off Leash Dog Park",
    "latitude": 38.6813368,
    "longitude": -121.5043745,
    "state": "California",
    "stateAbbr": "CA",
    "tags": {
      "leisure": "dog_park",
      "name": "Regency Community Park Off Leash Dog Park"
    }
  },
  {
    "id": 544101855,
    "name": "Red Hill Dog Park",
    "latitude": 37.9819831,
    "longitude": -122.5626396,
    "state": "California",
    "stateAbbr": "CA",
    "tags": {
      "leisure": "dog_park",
      "name": "Red Hill Dog Park"
    }
  },
  {
    "id": 544234353,
    "name": "Dog Park",
    "latitude": 38.644144,
    "longitude": -121.0574587,
    "state": "California",
    "stateAbbr": "CA",
    "tags": {
      "collection_times": "Mo",
      "landuse": "meadow",
      "leisure": "dog_park"
    }
  },
  {
    "id": 544246096,
    "name": "Field of Dogs Dog Park",
    "latitude": 37.9989751,
    "longitude": -122.5293163,
    "state": "California",
    "stateAbbr": "CA",
    "tags": {
      "leisure": "dog_park",
      "name": "Field of Dogs Dog Park"
    }
  },
  {
    "id": 544595268,
    "name": "Dog Park",
    "latitude": 38.7112526,
    "longitude": -121.2538642,
    "state": "California",
    "stateAbbr": "CA",
    "tags": {
      "description": "Very small dog park with access to walking park. Bench available to sit down.",
      "leisure": "dog_park"
    }
  },
  {
    "id": 544702367,
    "name": "Algonquin Dog Park",
    "latitude": 37.2711466,
    "longitude": -121.7671856,
    "state": "California",
    "stateAbbr": "CA",
    "tags": {
      "leisure": "dog_park",
      "name": "Algonquin Dog Park"
    }
  },
  {
    "id": 544772900,
    "name": "Truitt Bark Park",
    "latitude": 38.5690006,
    "longitude": -121.4851135,
    "state": "California",
    "stateAbbr": "CA",
    "tags": {
      "leisure": "dog_park",
      "name": "Truitt Bark Park",
      "website": "https://www.midtownsacdogpark.com"
    }
  },
  {
    "id": 544930218,
    "name": "Dog Park",
    "latitude": 36.0576275,
    "longitude": -115.1143542,
    "state": "California",
    "stateAbbr": "CA",
    "tags": {
      "leisure": "dog_park"
    }
  },
  {
    "id": 545341147,
    "name": "Dog Park",
    "latitude": 33.8820244,
    "longitude": -117.6653386,
    "state": "California",
    "stateAbbr": "CA",
    "tags": {
      "access": "private",
      "leisure": "dog_park"
    }
  },
  {
    "id": 545776567,
    "name": "Badger Dog Park",
    "latitude": 38.6097601,
    "longitude": -122.8567669,
    "state": "California",
    "stateAbbr": "CA",
    "tags": {
      "leisure": "dog_park",
      "name": "Badger Dog Park"
    }
  },
  {
    "id": 545793433,
    "name": "Ames Humane Society Dog Park",
    "latitude": 37.4210304,
    "longitude": -121.8869823,
    "state": "California",
    "stateAbbr": "CA",
    "tags": {
      "leisure": "dog_park",
      "name": "Ames Humane Society Dog Park"
    }
  },
  {
    "id": 546881909,
    "name": "Dog Park",
    "latitude": 36.0950904,
    "longitude": -115.291774,
    "state": "California",
    "stateAbbr": "CA",
    "tags": {
      "leisure": "dog_park"
    }
  },
  {
    "id": 547215145,
    "name": "Dog Park",
    "latitude": 37.6895372,
    "longitude": -122.1823598,
    "state": "California",
    "stateAbbr": "CA",
    "tags": {
      "leisure": "dog_park"
    }
  },
  {
    "id": 547224409,
    "name": "Dog Park",
    "latitude": 37.7762441,
    "longitude": -122.4353469,
    "state": "California",
    "stateAbbr": "CA",
    "tags": {
      "leisure": "dog_park",
      "surface": "grass",
      "wheelchair": "yes"
    }
  },
  {
    "id": 547314056,
    "name": "Dog Park",
    "latitude": 36.2458761,
    "longitude": -115.1534463,
    "state": "California",
    "stateAbbr": "CA",
    "tags": {
      "area": "yes",
      "barrier": "fence",
      "leisure": "dog_park",
      "lit": "yes",
      "opening_hours": "Th-Tu 06:00-23:00; We 08:00-23:00",
      "wheelchair": "yes"
    }
  },
  {
    "id": 547314058,
    "name": "Dog Park",
    "latitude": 36.2460385,
    "longitude": -115.1523696,
    "state": "California",
    "stateAbbr": "CA",
    "tags": {
      "area": "yes",
      "barrier": "fence",
      "leisure": "dog_park",
      "lit": "yes",
      "opening_hours": "Th-Tu 06:00-23:00; We 08:00-23:00",
      "wheelchair": "yes"
    }
  },
  {
    "id": 548226498,
    "name": "Dog Park",
    "latitude": 37.4538409,
    "longitude": -121.144272,
    "state": "California",
    "stateAbbr": "CA",
    "tags": {
      "leisure": "dog_park"
    }
  },
  {
    "id": 549180647,
    "name": "Dog Park",
    "latitude": 32.6085968,
    "longitude": -117.0784841,
    "state": "California",
    "stateAbbr": "CA",
    "tags": {
      "description": "designated pet area",
      "leisure": "dog_park"
    }
  },
  {
    "id": 550043064,
    "name": "Costa Mesa Bark Park (Small Dog)",
    "latitude": 33.6696885,
    "longitude": -117.8930715,
    "state": "California",
    "stateAbbr": "CA",
    "tags": {
      "leisure": "dog_park",
      "name": "Costa Mesa Bark Park (Small Dog)"
    }
  },
  {
    "id": 551399620,
    "name": "Dog Park",
    "latitude": 37.3714341,
    "longitude": -122.0813103,
    "state": "California",
    "stateAbbr": "CA",
    "tags": {
      "leisure": "dog_park"
    }
  },
  {
    "id": 551837087,
    "name": "Dog Park",
    "latitude": 37.7816627,
    "longitude": -122.4263609,
    "state": "California",
    "stateAbbr": "CA",
    "tags": {
      "leisure": "dog_park"
    }
  },
  {
    "id": 551990539,
    "name": "Dog Park",
    "latitude": 37.8014687,
    "longitude": -122.4323486,
    "state": "California",
    "stateAbbr": "CA",
    "tags": {
      "leisure": "dog_park"
    }
  },
  {
    "id": 552937909,
    "name": "Dog Park",
    "latitude": 36.8703898,
    "longitude": -119.7806235,
    "state": "California",
    "stateAbbr": "CA",
    "tags": {
      "leisure": "dog_park"
    }
  },
  {
    "id": 553176491,
    "name": "Dog Park",
    "latitude": 33.8575733,
    "longitude": -118.3767915,
    "state": "California",
    "stateAbbr": "CA",
    "tags": {
      "access": "yes",
      "leisure": "dog_park",
      "opening_hours": "Mo-Su dawn-dusk"
    }
  },
  {
    "id": 555398096,
    "name": "Civic Center Dog Park",
    "latitude": 34.5238426,
    "longitude": -117.2106342,
    "state": "California",
    "stateAbbr": "CA",
    "tags": {
      "barrier": "fence",
      "leisure": "dog_park",
      "name": "Civic Center Dog Park"
    }
  },
  {
    "id": 556602909,
    "name": "Recreation Dog Park",
    "latitude": 33.7770548,
    "longitude": -118.1332305,
    "state": "California",
    "stateAbbr": "CA",
    "tags": {
      "leisure": "dog_park",
      "name": "Recreation Dog Park",
      "opening_hours": "06:00-20:00"
    }
  },
  {
    "id": 556635327,
    "name": "Seven Oaks Bark Park",
    "latitude": 36.3205969,
    "longitude": -119.2790054,
    "state": "California",
    "stateAbbr": "CA",
    "tags": {
      "access": "yes",
      "landuse": "grass",
      "leisure": "dog_park",
      "name": "Seven Oaks Bark Park",
      "wood:density": "sparse"
    }
  },
  {
    "id": 556811324,
    "name": "Vinewood Dog Park",
    "latitude": 38.124932,
    "longitude": -121.2949876,
    "state": "California",
    "stateAbbr": "CA",
    "tags": {
      "leisure": "dog_park",
      "name": "Vinewood Dog Park"
    }
  },
  {
    "id": 556935372,
    "name": "Dog Park",
    "latitude": 37.6988283,
    "longitude": -122.0558171,
    "state": "California",
    "stateAbbr": "CA",
    "tags": {
      "leisure": "dog_park"
    }
  },
  {
    "id": 561241647,
    "name": "Dog Park",
    "latitude": 32.6310828,
    "longitude": -116.9510138,
    "state": "California",
    "stateAbbr": "CA",
    "tags": {
      "leisure": "dog_park"
    }
  },
  {
    "id": 562941689,
    "name": "Bluff Creek Dog Park",
    "latitude": 33.9750466,
    "longitude": -118.4134349,
    "state": "California",
    "stateAbbr": "CA",
    "tags": {
      "leisure": "dog_park",
      "name": "Bluff Creek Dog Park"
    }
  },
  {
    "id": 563202199,
    "name": "Dog Park",
    "latitude": 33.9734794,
    "longitude": -118.4265061,
    "state": "California",
    "stateAbbr": "CA",
    "tags": {
      "leisure": "dog_park"
    }
  },
  {
    "id": 564199260,
    "name": "Lagoon Valley/Peña Adobe Dog Park",
    "latitude": 38.3336441,
    "longitude": -122.0098143,
    "state": "California",
    "stateAbbr": "CA",
    "tags": {
      "leisure": "dog_park",
      "name": "Lagoon Valley/Peña Adobe Dog Park"
    }
  },
  {
    "id": 564949205,
    "name": "Rincon Valley Community Park Dog Park",
    "latitude": 38.4804279,
    "longitude": -122.6632199,
    "state": "California",
    "stateAbbr": "CA",
    "tags": {
      "area": "yes",
      "barrier": "fence",
      "fence_type": "chain_link",
      "leisure": "dog_park",
      "lit": "no",
      "name": "Rincon Valley Community Park Dog Park",
      "wheelchair": "limited"
    }
  },
  {
    "id": 566494475,
    "name": "The Park Dog Park",
    "latitude": 33.6538008,
    "longitude": -117.7536619,
    "state": "California",
    "stateAbbr": "CA",
    "tags": {
      "leisure": "dog_park",
      "name": "The Park Dog Park"
    }
  },
  {
    "id": 573287809,
    "name": "Dog Park",
    "latitude": 37.7723632,
    "longitude": -122.3935246,
    "state": "California",
    "stateAbbr": "CA",
    "tags": {
      "leisure": "dog_park",
      "start_date": "2018",
      "wheelchair": "yes"
    }
  },
  {
    "id": 576099480,
    "name": "Dog Park",
    "latitude": 37.7518902,
    "longitude": -122.3929564,
    "state": "California",
    "stateAbbr": "CA",
    "tags": {
      "leisure": "dog_park"
    }
  },
  {
    "id": 577355715,
    "name": "Dog Park",
    "latitude": 36.0474023,
    "longitude": -115.0517592,
    "state": "California",
    "stateAbbr": "CA",
    "tags": {
      "leisure": "dog_park"
    }
  },
  {
    "id": 577621111,
    "name": "Dog Park",
    "latitude": 37.7182896,
    "longitude": -122.4812917,
    "state": "California",
    "stateAbbr": "CA",
    "tags": {
      "leisure": "dog_park"
    }
  },
  {
    "id": 583838402,
    "name": "Todd Beamer Dog Park",
    "latitude": 36.8778493,
    "longitude": -119.7490969,
    "state": "California",
    "stateAbbr": "CA",
    "tags": {
      "leisure": "dog_park",
      "name": "Todd Beamer Dog Park"
    }
  },
  {
    "id": 584066505,
    "name": "Dog Park",
    "latitude": 36.2247178,
    "longitude": -115.2387505,
    "state": "California",
    "stateAbbr": "CA",
    "tags": {
      "leisure": "dog_park"
    }
  },
  {
    "id": 588485094,
    "name": "Palm Springs Dog Park",
    "latitude": 33.8249723,
    "longitude": -116.5118485,
    "state": "California",
    "stateAbbr": "CA",
    "tags": {
      "leisure": "dog_park",
      "name": "Palm Springs Dog Park"
    }
  },
  {
    "id": 742693906,
    "name": "Large Dog Park",
    "latitude": 33.6220049,
    "longitude": -117.3018026,
    "state": "California",
    "stateAbbr": "CA",
    "tags": {
      "leisure": "dog_park",
      "name": "Large Dog Park"
    }
  },
  {
    "id": 589614654,
    "name": "Kearny Mesa Dog Park",
    "latitude": 32.8001216,
    "longitude": -117.1680499,
    "state": "California",
    "stateAbbr": "CA",
    "tags": {
      "barrier": "fence",
      "leisure": "dog_park",
      "name": "Kearny Mesa Dog Park"
    }
  },
  {
    "id": 593410386,
    "name": "Dog Park",
    "latitude": 33.6694762,
    "longitude": -117.9165646,
    "state": "California",
    "stateAbbr": "CA",
    "tags": {
      "leisure": "dog_park"
    }
  },
  {
    "id": 594771707,
    "name": "Tassajara Dog Park",
    "latitude": 37.743284,
    "longitude": -121.8834937,
    "state": "California",
    "stateAbbr": "CA",
    "tags": {
      "leisure": "dog_park",
      "name": "Tassajara Dog Park"
    }
  },
  {
    "id": 601470185,
    "name": "Dog Park",
    "latitude": 35.4164661,
    "longitude": -119.092583,
    "state": "California",
    "stateAbbr": "CA",
    "tags": {
      "description": "small dogs only",
      "leisure": "dog_park"
    }
  },
  {
    "id": 601483969,
    "name": "Kroll Dog Park",
    "latitude": 35.3493227,
    "longitude": -119.086955,
    "state": "California",
    "stateAbbr": "CA",
    "tags": {
      "access": "yes",
      "leisure": "dog_park",
      "name": "Kroll Dog Park",
      "wheelchair": "yes"
    }
  },
  {
    "id": 604257631,
    "name": "Cipriani Dog Park",
    "latitude": 37.515239,
    "longitude": -122.3060382,
    "state": "California",
    "stateAbbr": "CA",
    "tags": {
      "leisure": "dog_park",
      "name": "Cipriani Dog Park",
      "surface": "dirt"
    }
  },