[
  {
    "id": 4168465134,
    "name": "Dog Park",
    "latitude": 21.3121299,
    "longitude": -157.8080848,
    "state": "Hawaii",
    "stateAbbr": "HI",
    "tags": {
      "leisure": "dog_park"
    }
  },
  {
    "id": 12237484703,
    "name": "Island Palms Community Dog Park",
    "latitude": 21.4895184,
    "longitude": -158.0787008,
    "state": "Hawaii",
    "stateAbbr": "HI",
    "tags": {
      "access": "private",
      "leisure": "dog_park",
      "name": "Island Palms Community Dog Park"
    }
  },
  {
    "id": 446832401,
    "name": "Diamond Head Bark Park",
    "latitude": 21.2671753,
    "longitude": -157.7988279,
    "state": "Hawaii",
    "stateAbbr": "HI",
    "tags": {
      "barrier": "fence",
      "fence_type": "chain_link",
      "leisure": "dog_park",
      "lit": "no",
      "name": "Diamond Head Bark Park"
    }
  },
  {
    "id": 446834317,
    "name": "Ala Wai Dog Park",
    "latitude": 21.2834571,
    "longitude": -157.8260125,
    "state": "Hawaii",
    "stateAbbr": "HI",
    "tags": {
      "barrier": "fence",
      "fence_type": "chain_link",
      "leisure": "dog_park",
      "name": "Ala Wai Dog Park"
    }
  },
  {
    "id": 468579201,
    "name": "Dog Park",
    "latitude": 21.3457298,
    "longitude": -157.9206959,
    "state": "Hawaii",
    "stateAbbr": "HI",
    "tags": {
      "leisure": "dog_park"
    }
  },
  {
    "id": 531341847,
    "name": "Hawai’i Kai Dog Park",
    "latitude": 21.2840851,
    "longitude": -157.7148537,
    "state": "Hawaii",
    "stateAbbr": "HI",
    "tags": {
      "leisure": "dog_park",
      "name": "Hawai’i Kai Dog Park"
    }
  },
  {
    "id": 823355711,
    "name": "Mililani Dog Park",
    "latitude": 21.4691656,
    "longitude": -158.0050563,
    "state": "Hawaii",
    "stateAbbr": "HI",
    "tags": {
      "access": "yes",
      "addr:city": "Mililani",
      "addr:housenumber": "95-1069",
      "addr:postcode": "96789",
      "addr:state": "HI",
      "addr:street": "Ukuwai Street",
      "dog": "yes",
      "leisure": "dog_park",
      "name": "Mililani Dog Park",
      "phone": "+1 808 675 6030"
    }
  },
  {
    "id": 1121961802,
    "name": "Hoalauna Dog Park",
    "latitude": 21.3311759,
    "longitude": -158.0173332,
    "state": "Hawaii",
    "stateAbbr": "HI",
    "tags": {
      "leisure": "dog_park",
      "name": "Hoalauna Dog Park"
    }
  },
  {
    "id": 1347479302,
    "name": "Dog Park",
    "latitude": 19.8258173,
    "longitude": -155.9964222,
    "state": "Hawaii",
    "stateAbbr": "HI",
    "tags": {
      "leisure": "dog_park",
      "surface": "grass"
    }
  },
  {
    "id": 1384193903,
    "name": "Bark and Ride",
    "latitude": 21.3624066,
    "longitude": -158.0481859,
    "state": "Hawaii",
    "stateAbbr": "HI",
    "tags": {
      "access": "yes",
      "addr:city": "East Kapolei",
      "addr:housenumber": "91-3575",
      "addr:postcode": "96706",
      "addr:state": "HI",
      "addr:street": "Kauluakoko Street",
      "leisure": "dog_park",
      "name": "Bark and Ride",
      "operator": "Kohina at Hoopili"
    }
  },
  {
    "id": 1408923600,
    "name": "Dog Park",
    "latitude": 21.3377863,
    "longitude": -157.9504384,
    "state": "Hawaii",
    "stateAbbr": "HI",
    "tags": {
      "leisure": "dog_park"
    }
  },
  {
    "id": 1414511998,
    "name": "Maryknoll Dog Park",
    "latitude": 21.3003183,
    "longitude": -157.8318604,
    "state": "Hawaii",
    "stateAbbr": "HI",
    "tags": {
      "access": "yes",
      "addr:city": "Honolulu",
      "addr:housenumber": "1704",
      "addr:postcode": "96822",
      "addr:state": "HI",
      "addr:street": "Clark Street St",
      "leisure": "dog_park",
      "name": "Maryknoll Dog Park"
    }
  },
  {
    "id": 1476404204,
    "name": "Dog Park",
    "latitude": 21.3699688,
    "longitude": -157.9564097,
    "state": "Hawaii",
    "stateAbbr": "HI",
    "tags": {
      "leisure": "dog_park"
    }
  },
  {
    "id": 1494117788,
    "name": "Dog Park",
    "latitude": 21.3536739,
    "longitude": -157.9347535,
    "state": "Hawaii",
    "stateAbbr": "HI",
    "tags": {
      "barrier": "fence",
      "fence_type": "chain_link",
      "leisure": "dog_park"
    }
  }
]