[
  {
    "id": 9403430921,
    "name": "Dog Park",
    "latitude": 46.3818307,
    "longitude": -117.0487263,
    "state": "Idaho",
    "stateAbbr": "ID",
    "tags": {
      "leisure": "dog_park"
    }
  },
  {
    "id": 210236848,
    "name": "Nampa Dog Park",
    "latitude": 43.5625066,
    "longitude": -116.5360644,
    "state": "Idaho",
    "stateAbbr": "ID",
    "tags": {
      "barrier": "fence",
      "leisure": "dog_park",
      "name": "Nampa Dog Park",
      "opening_hours": "sunrise-sunset"
    }
  },
  {
    "id": 512193070,
    "name": "Dog Park",
    "latitude": 44.0160219,
    "longitude": -116.9445396,
    "state": "Idaho",
    "stateAbbr": "ID",
    "tags": {
      "leisure": "dog_park",
      "wheelchair": "limited"
    }
  },
  {
    "id": 636436503,
    "name": "Dog Park",
    "latitude": 46.7439747,
    "longitude": -117.1504788,
    "state": "Idaho",
    "stateAbbr": "ID",
    "tags": {
      "leisure": "dog_park"
    }
  },
  {
    "id": 965231791,
    "name": "Dog Park",
    "latitude": 47.6706235,
    "longitude": -116.7778216,
    "state": "Idaho",
    "stateAbbr": "ID",
    "tags": {
      "leisure": "dog_park"
    }
  },
  {
    "id": 974791121,
    "name": "Dog Park",
    "latitude": 48.3098897,
    "longitude": -116.5375486,
    "state": "Idaho",
    "stateAbbr": "ID",
    "tags": {
      "leisure": "dog_park"
    }
  },
  {
    "id": 981107309,
    "name": "Dog Park",
    "latitude": 43.6791699,
    "longitude": -116.6940503,
    "state": "Idaho",
    "stateAbbr": "ID",
    "tags": {
      "leisure": "dog_park"
    }
  },
  {
    "id": 982390070,
    "name": "Patricia Simonet Laughing Dog Park",
    "latitude": 47.6970011,
    "longitude": -117.0501637,
    "state": "Idaho",
    "stateAbbr": "ID",
    "tags": {
      "access": "yes",
      "addr:city": "Liberty Lake",
      "addr:housenumber": "26715",
      "addr:postcode": "99027",
      "addr:state": "WA",
      "addr:street": "East Spokane Bridge Road",
      "dog": "yes",
      "leisure": "dog_park",
      "name": "Patricia Simonet Laughing Dog Park",
      "website": "https://www.spokanecounty.org/Facilities/Facility/Details/Patricia-Simonet-Laughing-Dog-Park-13",
      "wheelchair": "no"
    }
  },
  {
    "id": 991862612,
    "name": "Dog Park",
    "latitude": 47.6732327,
    "longitude": -117.1778841,
    "state": "Idaho",
    "stateAbbr": "ID",
    "tags": {
      "leisure": "dog_park"
    }
  },
  {
    "id": 995773325,
    "name": "Dog Park",
    "latitude": 47.6975616,
    "longitude": -116.8178113,
    "state": "Idaho",
    "stateAbbr": "ID",
    "tags": {
      "leisure": "dog_park"
    }
  },
  {
    "id": 1053537391,
    "name": "Atlas Waterfront Dog Park",
    "latitude": 47.6952737,
    "longitude": -116.8155976,
    "state": "Idaho",
    "stateAbbr": "ID",
    "tags": {
      "access": "yes",
      "dog": "yes",
      "leisure": "dog_park",
      "name": "Atlas Waterfront Dog Park",
      "start_date": "2020"
    }
  },
  {
    "id": 1083616433,
    "name": "Rathdrum Dog Park",
    "latitude": 47.7917704,
    "longitude": -116.8642606,
    "state": "Idaho",
    "stateAbbr": "ID",
    "tags": {
      "leisure": "dog_park",
      "name": "Rathdrum Dog Park"
    }
  },
  {
    "id": 1089957965,
    "name": "Dog Park",
    "latitude": 47.6698699,
    "longitude": -117.1818397,
    "state": "Idaho",
    "stateAbbr": "ID",
    "tags": {
      "leisure": "dog_park"
    }
  },
  {
    "id": 1099667567,
    "name": "Dog Park",
    "latitude": 47.6853784,
    "longitude": -117.1546492,
    "state": "Idaho",
    "stateAbbr": "ID",
    "tags": {
      "leisure": "dog_park"
    }
  },
  {
    "id": 1107612957,
    "name": "Thayer Farms Dog Park",
    "latitude": 47.7887559,
    "longitude": -116.9068913,
    "state": "Idaho",
    "stateAbbr": "ID",
    "tags": {
      "leisure": "dog_park",
      "name": "Thayer Farms Dog Park"
    }
  },
  {
    "id": 1123268840,
    "name": "Dog Park",
    "latitude": 43.5847475,
    "longitude": -116.6217104,
    "state": "Idaho",
    "stateAbbr": "ID",
    "tags": {
      "leisure": "dog_park"
    }
  },
  {
    "id": 1195432393,
    "name": "Dog Park",
    "latitude": 43.6150136,
    "longitude": -116.6217631,
    "state": "Idaho",
    "stateAbbr": "ID",
    "tags": {
      "leisure": "dog_park"
    }
  },
  {
    "id": 1219930713,
    "name": "Pawfoot Dog Park",
    "latitude": 47.785908,
    "longitude": -116.8028226,
    "state": "Idaho",
    "stateAbbr": "ID",
    "tags": {
      "access": "yes",
      "addr:city": "Hayden",
      "addr:housenumber": "1357",
      "addr:postcode": "83835",
      "addr:state": "ID",
      "addr:street": "West Lancaster",
      "leisure": "dog_park",
      "name": "Pawfoot Dog Park",
      "operator": "City of Hayden",
      "operator:type": "public"
    }
  },
  {
    "id": 1283358968,
    "name": "Central Bark Dog Park",
    "latitude": 47.7167373,
    "longitude": -116.8320764,
    "state": "Idaho",
    "stateAbbr": "ID",
    "tags": {
      "access": "yes",
      "addr:city": "Coeur d'Alene",
      "addr:housenumber": "3889",
      "addr:postcode": "83815",
      "addr:state": "ID",
      "addr:street": "West Nez Perce Road",
      "leisure": "dog_park",
      "name": "Central Bark Dog Park",
      "operator": "City of Coeur d'Alene",
      "website": "https://www.cdaid.org/737/departments/parks/all-parks/central-bark-dog-park"
    }
  },
  {
    "id": 1305795795,
    "name": "Paws and Brews",
    "latitude": 47.7079761,
    "longitude": -116.8867211,
    "state": "Idaho",
    "stateAbbr": "ID",
    "tags": {
      "addr:city": "Post Falls",
      "addr:housenumber": "4565",
      "addr:postcode": "83854",
      "addr:state": "ID",
      "addr:street": "East Seltice Way",
      "brewery": "post_falls_brewing",
      "dog": "yes",
      "leisure": "dog_park",
      "name": "Paws and Brews",
      "opening_hours": "Mo-Th 12:00-21:00; Fr-Su 11:00-21:00",
      "outdoor_seating": "yes",
      "phone": "+1 208-719-9777",
      "website": "https://www.pawsnbrews.com/"
    }
  },
  {
    "id": 1312469500,
    "name": "Dog Park",
    "latitude": 46.7485061,
    "longitude": -117.1543944,
    "state": "Idaho",
    "stateAbbr": "ID",
    "tags": {
      "leisure": "dog_park"
    }
  },
  {
    "id": 1419744340,
    "name": "Dog Park",
    "latitude": 43.5464688,
    "longitude": -116.5684788,
    "state": "Idaho",
    "stateAbbr": "ID",
    "tags": {
      "leisure": "dog_park",
      "operator": "Sunnybrook Apartments",
      "operator:type": "private"
    }
  },
  {
    "id": 10833432389,
    "name": "Encore Skyline Dog Park",
    "latitude": 43.584966,
    "longitude": -116.2012954,
    "state": "Idaho",
    "stateAbbr": "ID",
    "tags": {
      "leisure": "dog_park",
      "name": "Encore Skyline Dog Park"
    }
  },
  {
    "id": 11198619091,
    "name": "The Dog Club",
    "latitude": 48.2019773,
    "longitude": -114.317269,
    "state": "Idaho",
    "stateAbbr": "ID",
    "tags": {
      "leisure": "dog_park",
      "name": "The Dog Club",
      "opening_hours": "Mo-Fr 07:00-19:00"
    }
  },
  {
    "id": 11240966549,
    "name": "Little Rascal Ranch",
    "latitude": 42.6168903,
    "longitude": -113.814412,
    "state": "Idaho",
    "stateAbbr": "ID",
    "tags": {
      "addr:city": "Paul",
      "addr:housenumber": "19",
      "addr:postcode": "83347",
      "addr:state": "ID",
      "addr:street": "South 750 West",
      "leisure": "dog_park",
      "name": "Little Rascal Ranch",
      "opening_hours": "Mo-Sa 07:00-21:30; Su 13:00-18:00",
      "payment:cash": "yes",
      "payment:cheque": "yes",
      "payment:mastercard": "yes",
      "payment:visa": "yes",
      "phone": "+1-208-312-0550",
      "website": "https://littlerascalranchid.com"
    }
  },
  {
    "id": 12085383094,
    "name": "Island Park Off-Leash Area",
    "latitude": 45.1758296,
    "longitude": -113.9014098,
    "state": "Idaho",
    "stateAbbr": "ID",
    "tags": {
      "leisure": "dog_park",
      "name": "Island Park Off-Leash Area"
    }
  },
  {
    "id": 127966689,
    "name": "Dog Park",
    "latitude": 46.8855116,
    "longitude": -113.9985086,
    "state": "Idaho",
    "stateAbbr": "ID",
    "tags": {
      "disused:leisure": "pitch",
      "leisure": "dog_park",
      "sport": "baseball"
    }
  },
  {
    "id": 212069822,
    "name": "Snowfill Recreation Area",
    "latitude": 45.7206482,
    "longitude": -111.032643,
    "state": "Idaho",
    "stateAbbr": "ID",
    "tags": {
      "access": "yes",
      "bags": "yes",
      "fenced": "yes",
      "leisure": "dog_park",
      "name": "Snowfill Recreation Area",
      "waste_disposal": "yes",
      "water": "trough"
    }
  },
  {
    "id": 247735272,
    "name": "Dog Park",
    "latitude": 43.6048378,
    "longitude": -116.231496,
    "state": "Idaho",
    "stateAbbr": "ID",
    "tags": {
      "leisure": "dog_park"
    }
  },
  {
    "id": 289299513,
    "name": "Dog Park",
    "latitude": 43.8355739,
    "longitude": -111.799814,
    "state": "Idaho",
    "stateAbbr": "ID",
    "tags": {
      "leisure": "dog_park"
    }
  },
  {
    "id": 431584145,
    "name": "Dog Park",
    "latitude": 44.6882525,
    "longitude": -111.217273,
    "state": "Idaho",
    "stateAbbr": "ID",
    "tags": {
      "leisure": "dog_park"
    }
  },
  {
    "id": 461409894,
    "name": "Binx Community Dog Park",
    "latitude": 43.5345408,
    "longitude": -116.3000636,
    "state": "Idaho",
    "stateAbbr": "ID",
    "tags": {
      "leisure": "dog_park",
      "name": "Binx Community Dog Park"
    }
  },
  {
    "id": 536528183,
    "name": "Paws Park",
    "latitude": 46.6024297,
    "longitude": -112.0306478,
    "state": "Idaho",
    "stateAbbr": "ID",
    "tags": {
      "leisure": "dog_park",
      "name": "Paws Park"
    }
  },
  {
    "id": 545780138,
    "name": "Pacific Steel & Recycling Trailside Dog Park",
    "latitude": 47.5162678,
    "longitude": -111.2945328,
    "state": "Idaho",
    "stateAbbr": "ID",
    "tags": {
      "leisure": "dog_park",
      "name": "Pacific Steel & Recycling Trailside Dog Park"
    }
  },
  {
    "id": 557872120,
    "name": "Dog Park",
    "latitude": 45.6742567,
    "longitude": -111.0829187,
    "state": "Idaho",
    "stateAbbr": "ID",
    "tags": {
      "barrier": "fence",
      "leisure": "dog_park",
      "name": "Dog Park"
    }
  },
  {
    "id": 580581013,
    "name": "Hamilton Dog Park",
    "latitude": 46.2542376,
    "longitude": -114.171126,
    "state": "Idaho",
    "stateAbbr": "ID",
    "tags": {
      "addr:city": "Hamilton",
      "addr:housenumber": "843",
      "addr:state": "MT",
      "addr:street": "New York Avenue",
      "leisure": "dog_park",
      "name": "Hamilton Dog Park",
      "website": "https://www.cityofhamilton.net/living/parks_and_recreation/dog_park.html"
    }
  },
  {
    "id": 582722257,
    "name": "Sterling Dog Park",
    "latitude": 43.6155028,
    "longitude": -116.3053599,
    "state": "Idaho",
    "stateAbbr": "ID",
    "tags": {
      "access": "yes",
      "leisure": "dog_park",
      "name": "Sterling Dog Park"
    }
  },
  {
    "id": 616356623,
    "name": "Hugh Rogers Wag Park",
    "latitude": 48.4098534,
    "longitude": -114.3103261,
    "state": "Idaho",
    "stateAbbr": "ID",
    "tags": {
      "leisure": "dog_park",
      "name": "Hugh Rogers Wag Park",
      "note": "http://wagparks.org/"
    }
  },
  {
    "id": 623679330,
    "name": "Les Mason Off-Leash Area",
    "latitude": 48.4579721,
    "longitude": -114.3719248,
    "state": "Idaho",
    "stateAbbr": "ID",
    "tags": {
      "leisure": "dog_park",
      "name": "Les Mason Off-Leash Area",
      "wheelchair": "no"
    }
  },
  {
    "id": 734449665,
    "name": "Dog Park",
    "latitude": 45.1651039,
    "longitude": -113.864572,
    "state": "Idaho",
    "stateAbbr": "ID",
    "tags": {
      "leisure": "dog_park"
    }
  },
  {
    "id": 737406310,
    "name": "Fort Boise Dog Park",
    "latitude": 43.6169435,
    "longitude": -116.1842245,
    "state": "Idaho",
    "stateAbbr": "ID",
    "tags": {
      "leisure": "dog_park",
      "name": "Fort Boise Dog Park"
    }
  },
  {
    "id": 783782856,
    "name": "Dog Park",
    "latitude": 45.6970972,
    "longitude": -111.0197294,
    "state": "Idaho",
    "stateAbbr": "ID",
    "tags": {
      "fenced": "yes",
      "leisure": "dog_park"
    }
  },
  {
    "id": 816353558,
    "name": "Travis Dolphin Dog Park",
    "latitude": 47.6889377,
    "longitude": -114.179842,
    "state": "Idaho",
    "stateAbbr": "ID",
    "tags": {
      "leisure": "dog_park",
      "name": "Travis Dolphin Dog Park"
    }
  },
  {
    "id": 839519138,
    "name": "Corso Pet Play Area",
    "latitude": 46.8698222,
    "longitude": -114.0201435,
    "state": "Idaho",
    "stateAbbr": "ID",
    "tags": {
      "access": "private",
      "leisure": "dog_park",
      "name": "Corso Pet Play Area",
      "operator": "Corso Apartments"
    }
  },
  {
    "id": 884248514,
    "name": "Dog Park",
    "latitude": 45.6866955,
    "longitude": -111.0671711,
    "state": "Idaho",
    "stateAbbr": "ID",
    "tags": {
      "leisure": "dog_park"
    }
  },
  {
    "id": 886817912,
    "name": "Skyline Dog Park",
    "latitude": 45.9861102,
    "longitude": -112.4834744,
    "state": "Idaho",
    "stateAbbr": "ID",
    "tags": {
      "leisure": "dog_park",
      "name": "Skyline Dog Park"
    }
  },
  {
    "id": 897801883,
    "name": "Creekside Dog Park",
    "latitude": 46.8625658,
    "longitude": -113.9627377,
    "state": "Idaho",
    "stateAbbr": "ID",
    "tags": {
      "leisure": "dog_park",
      "name": "Creekside Dog Park"
    }
  },
  {
    "id": 913619093,
    "name": "Discovery Dog Park",
    "latitude": 43.5455793,
    "longitude": -116.3664964,
    "state": "Idaho",
    "stateAbbr": "ID",
    "tags": {
      "leisure": "dog_park",
      "name": "Discovery Dog Park",
      "operator": "City of Meridian"
    }
  },
  {
    "id": 913631153,
    "name": "Storey Bark Park",
    "latitude": 43.6011826,
    "longitude": -116.3877387,
    "state": "Idaho",
    "stateAbbr": "ID",
    "tags": {
      "leisure": "dog_park",
      "name": "Storey Bark Park",
      "operator": "City of Meridian",
      "operator:type": "government"
    }
  },
  {
    "id": 935623174,
    "name": "Dog Park",
    "latitude": 43.5470177,
    "longitude": -116.3480184,
    "state": "Idaho",
    "stateAbbr": "ID",
    "tags": {
      "addr:city": "Meridian",
      "addr:housenumber": "6363",
      "addr:postcode": "83642",
      "addr:state": "ID",
      "addr:street": "South Arable Way",
      "leisure": "dog_park"
    }
  },
  {
    "id": 954105379,
    "name": "Dog Park",
    "latitude": 43.131336,
    "longitude": -115.6739783,
    "state": "Idaho",
    "stateAbbr": "ID",
    "tags": {
      "leisure": "dog_park"
    }
  },
  {
    "id": 964405961,
    "name": "Dog Park",
    "latitude": 46.5975163,
    "longitude": -112.0184547,
    "state": "Idaho",
    "stateAbbr": "ID",
    "tags": {
      "access": "private",
      "leisure": "dog_park",
      "operator": "SkyHi Kennel",
      "website": "https://www.skyhikennel.com/"
    }
  },
  {
    "id": 979425658,
    "name": "St. Regis Dog Park",
    "latitude": 47.2981199,
    "longitude": -115.0989275,
    "state": "Idaho",
    "stateAbbr": "ID",
    "tags": {
      "leisure": "dog_park",
      "name": "St. Regis Dog Park",
      "operator": "St. Regis Travel Center"
    }
  },
  {
    "id": 982100922,
    "name": "Dog Park",
    "latitude": 43.632208,
    "longitude": -116.3707472,
    "state": "Idaho",
    "stateAbbr": "ID",
    "tags": {
      "barrier": "fence",
      "leisure": "dog_park"
    }
  },
  {
    "id": 982936773,
    "name": "Paws to Play Dog Park",
    "latitude": 48.1780313,
    "longitude": -114.3113929,
    "state": "Idaho",
    "stateAbbr": "ID",
    "tags": {
      "access": "yes",
      "leisure": "dog_park",
      "name": "Paws to Play Dog Park",
      "website": "https://www.pawstoplay.org/"
    }
  },
  {
    "id": 983014423,
    "name": "Jacob's Island Offleash Dog Park",
    "latitude": 46.8651579,
    "longitude": -113.979554,
    "state": "Idaho",
    "stateAbbr": "ID",
    "tags": {
      "leisure": "dog_park",
      "name": "Jacob's Island Offleash Dog Park",
      "website": "https://destinationmissoula.org/todo/explore-jacobs-island-bark-park"
    }
  },
  {
    "id": 983014424,
    "name": "Rail Link Dog Park B.C.",
    "latitude": 46.8495919,
    "longitude": -114.0276708,
    "state": "Idaho",
    "stateAbbr": "ID",
    "tags": {
      "access": "yes",
      "barrier": "fence",
      "leisure": "dog_park",
      "name": "Rail Link Dog Park B.C.",
      "website": "https://www.ci.missoula.mt.us/2234/Montana-Rail-Link-Park"
    }
  },
  {
    "id": 984470406,
    "name": "Dog Park",
    "latitude": 43.5790567,
    "longitude": -116.2952437,
    "state": "Idaho",
    "stateAbbr": "ID",
    "tags": {
      "access": "yes",
      "leisure": "dog_park"
    }
  },
  {
    "id": 997964865,
    "name": "Dog Park",
    "latitude": 45.6770882,
    "longitude": -111.1003378,
    "state": "Idaho",
    "stateAbbr": "ID",
    "tags": {
      "leisure": "dog_park"
    }
  },
  {
    "id": 1006210552,
    "name": "Dog Park",
    "latitude": 46.5823212,
    "longitude": -111.9466982,
    "state": "Idaho",
    "stateAbbr": "ID",
    "tags": {
      "leisure": "dog_park"
    }
  },
  {
    "id": 1008276141,
    "name": "Dog Park",
    "latitude": 45.6962582,
    "longitude": -111.0921038,
    "state": "Idaho",
    "stateAbbr": "ID",
    "tags": {
      "leisure": "dog_park"
    }
  },
  {
    "id": 1018216658,
    "name": "Dog Park",
    "latitude": 42.3121974,
    "longitude": -111.3013488,
    "state": "Idaho",
    "stateAbbr": "ID",
    "tags": {
      "leisure": "dog_park"
    }
  },
  {
    "id": 1046737942,
    "name": "Eagle Dog Park",
    "latitude": 43.710755,
    "longitude": -116.3145617,
    "state": "Idaho",
    "stateAbbr": "ID",
    "tags": {
      "leisure": "dog_park",
      "name": "Eagle Dog Park",
      "website": "https://www.cityofeagle.org/Facilities/Facility/Details/PetIQ-Dog-Park-15"
    }
  },
  {
    "id": 1067752388,
    "name": "Dog Park",
    "latitude": 43.6930131,
    "longitude": -116.4157312,
    "state": "Idaho",
    "stateAbbr": "ID",
    "tags": {
      "leisure": "dog_park"
    }
  },
  {
    "id": 1083890047,
    "name": "Dog Park",
    "latitude": 47.4792294,
    "longitude": -115.9349282,
    "state": "Idaho",
    "stateAbbr": "ID",
    "tags": {
      "leisure": "dog_park"
    }
  },
  {
    "id": 1122146493,
    "name": "Dog Park",
    "latitude": 45.6933454,
    "longitude": -111.0711334,
    "state": "Idaho",
    "stateAbbr": "ID",
    "tags": {
      "leisure": "dog_park"
    }
  },
  {
    "id": 1132018735,
    "name": "Dog Park",
    "latitude": 45.6539195,
    "longitude": -111.0673682,
    "state": "Idaho",
    "stateAbbr": "ID",
    "tags": {
      "leisure": "dog_park"
    }
  },
  {
    "id": 1134103571,
    "name": "Dog Park",
    "latitude": 43.6800789,
    "longitude": -116.394728,
    "state": "Idaho",
    "stateAbbr": "ID",
    "tags": {
      "dog": "yes",
      "leisure": "dog_park"
    }
  },
  {
    "id": 1203826802,
    "name": "Dog Park",
    "latitude": 46.963656,
    "longitude": -114.1313337,
    "state": "Idaho",
    "stateAbbr": "ID",
    "tags": {
      "barrier": "fence",
      "leisure": "dog_park"
    }
  },
  {
    "id": 1210091634,
    "name": "Waggin' Tails Dog Park",
    "latitude": 43.7025608,
    "longitude": -116.4961848,
    "state": "Idaho",
    "stateAbbr": "ID",
    "tags": {
      "access": "yes",
      "leisure": "dog_park",
      "name": "Waggin' Tails Dog Park",
      "website": "https://www.staridaho.org/pm/page/waggin-tails-dog-park"
    }
  },
  {
    "id": 1212816242,
    "name": "Dog Park",
    "latitude": 45.9696785,
    "longitude": -112.4760969,
    "state": "Idaho",
    "stateAbbr": "ID",
    "tags": {
      "barrier": "fence",
      "fence_type": "chain_link",
      "height": "4'",
      "landuse": "grass",
      "leisure": "dog_park",
      "wheelchair": "limited"
    }
  },
  {
    "id": 1239245467,
    "name": "Dog Park",
    "latitude": 43.5476961,
    "longitude": -116.3623589,
    "state": "Idaho",
    "stateAbbr": "ID",
    "tags": {
      "access": "private",
      "leisure": "dog_park"
    }
  },
  {
    "id": 1243630020,
    "name": "Dog Park",
    "latitude": 43.5645578,
    "longitude": -116.3398123,
    "state": "Idaho",
    "stateAbbr": "ID",
    "tags": {
      "leisure": "dog_park"
    }
  },
  {
    "id": 1257639517,
    "name": "Dog Park",
    "latitude": 43.5566499,
    "longitude": -116.1280577,
    "state": "Idaho",
    "stateAbbr": "ID",
    "tags": {
      "leisure": "dog_park"
    }
  },
  {
    "id": 1257639519,
    "name": "Dog Park",
    "latitude": 43.5566055,
    "longitude": -116.1272472,
    "state": "Idaho",
    "stateAbbr": "ID",
    "tags": {
      "leisure": "dog_park"
    }
  },
  {
    "id": 1266657272,
    "name": "Sgt. Bozo Dog Park",
    "latitude": 46.8442317,
    "longitude": -114.0564916,
    "state": "Idaho",
    "stateAbbr": "ID",
    "tags": {
      "access": "yes",
      "dog": "yes",
      "leisure": "dog_park",
      "name": "Sgt. Bozo Dog Park"
    }
  },
  {
    "id": 1288469516,
    "name": "Dog Park",
    "latitude": 42.5656419,
    "longitude": -114.4845436,
    "state": "Idaho",
    "stateAbbr": "ID",
    "tags": {
      "leisure": "dog_park"
    }
  },
  {
    "id": 1305858338,
    "name": "Dog Park",
    "latitude": 45.9251412,
    "longitude": -111.599793,
    "state": "Idaho",
    "stateAbbr": "ID",
    "tags": {
      "leisure": "dog_park"
    }
  },
  {
    "id": 1328267402,
    "name": "Clubhound",
    "latitude": 43.6491444,
    "longitude": -116.2672313,
    "state": "Idaho",
    "stateAbbr": "ID",
    "tags": {
      "addr:city": "Garden City",
      "addr:housenumber": "415",
      "addr:postcode": "83714",
      "addr:state": "ID",
      "addr:street": "East Remington Street",
      "leisure": "dog_park",
      "name": "Clubhound",
      "website": "https://clubhound.com/faqs"
    }
  },
  {
    "id": 1329706028,
    "name": "Dog Park",
    "latitude": 47.6970108,
    "longitude": -114.1863431,
    "state": "Idaho",
    "stateAbbr": "ID",
    "tags": {
      "barrier": "fence",
      "leisure": "dog_park"
    }
  },
  {
    "id": 1330783351,
    "name": "Eagle Ridge Dog Park",
    "latitude": 43.709518,
    "longitude": -116.4566923,
    "state": "Idaho",
    "stateAbbr": "ID",
    "tags": {
      "access": "private",
      "addr:city": "Eagle",
      "addr:housenumber": "8097",
      "addr:postcode": "83616",
      "addr:state": "ID",
      "addr:street": "West Broken Arrow Street",
      "leisure": "dog_park",
      "name": "Eagle Ridge Dog Park",
      "operator": "Eagle Ridge",
      "operator:type": "private"
    }
  },
  {
    "id": 1343084699,
    "name": "Dog Park",
    "latitude": 46.8947768,
    "longitude": -114.0441864,
    "state": "Idaho",
    "stateAbbr": "ID",
    "tags": {
      "leisure": "dog_park"
    }
  },
  {
    "id": 1349499497,
    "name": "Idaho Pups and Ales",
    "latitude": 43.6043189,
    "longitude": -116.430528,
    "state": "Idaho",
    "stateAbbr": "ID",
    "tags": {
      "addr:city": "Meridian",
      "addr:housenumber": "70",
      "addr:postcode": "83642",
      "addr:state": "ID",
      "addr:street": "South Outpost Lane",
      "leisure": "dog_park",
      "name": "Idaho Pups and Ales",
      "website": "https://idahopupsandales.com/"
    }
  },
  {
    "id": 1349802551,
    "name": "Dog Park",
    "latitude": 47.0763062,
    "longitude": -114.7677609,
    "state": "Idaho",
    "stateAbbr": "ID",
    "tags": {
      "barrier": "fence",
      "leisure": "dog_park"
    }
  },
  {
    "id": 1349802552,
    "name": "Dog Park",
    "latitude": 47.0733625,
    "longitude": -114.7642297,
    "state": "Idaho",
    "stateAbbr": "ID",
    "tags": {
      "leisure": "dog_park"
    }
  },
  {
    "id": 1390734751,
    "name": "Playfair Park Pup Pen",
    "latitude": 46.8441007,
    "longitude": -114.0108843,
    "state": "Idaho",
    "stateAbbr": "ID",
    "tags": {
      "barrier": "fence",
      "leisure": "dog_park",
      "name": "Playfair Park Pup Pen"
    }
  },
  {
    "id": 1413423382,
    "name": "Dog Park",
    "latitude": 47.4746769,
    "longitude": -111.3610114,
    "state": "Idaho",
    "stateAbbr": "ID",
    "tags": {
      "brand": "Love's",
      "brand:wikidata": "Q1872496",
      "leisure": "dog_park"
    }
  },
  {
    "id": 1413423684,
    "name": "Dog Park",
    "latitude": 42.9239102,
    "longitude": -114.9413714,
    "state": "Idaho",
    "stateAbbr": "ID",
    "tags": {
      "brand": "Love's",
      "brand:wikidata": "Q1872496",
      "leisure": "dog_park"
    }
  },
  {
    "id": 1413580464,
    "name": "Dog Park",
    "latitude": 46.9481802,
    "longitude": -114.1338499,
    "state": "Idaho",
    "stateAbbr": "ID",
    "tags": {
      "barrier": "fence",
      "brand": "Love's",
      "brand:wikidata": "Q1872496",
      "leisure": "dog_park",
      "operator": "Love's",
      "operator:type": "private"
    }
  },
  {
    "id": 1455706468,
    "name": "River Pointe Apartments Dog Park",
    "latitude": 43.6612922,
    "longitude": -116.2852117,
    "state": "Idaho",
    "stateAbbr": "ID",
    "tags": {
      "access": "private",
      "dog": "unleashed",
      "leisure": "dog_park",
      "name": "River Pointe Apartments Dog Park",
      "operator": "River Pointe Apartments"
    }
  },
  {
    "id": 1491973783,
    "name": "Lewis & Bark Dog Park",
    "latitude": 45.6766999,
    "longitude": -111.0822407,
    "state": "Idaho",
    "stateAbbr": "ID",
    "tags": {
      "access": "yes",
      "barrier": "fence",
      "leisure": "dog_park",
      "name": "Lewis & Bark Dog Park",
      "operator": "City of Bozeman",
      "operator:type": "government"
    }
  }
]