[
  {
    "id": 4966121892,
    "name": "Dog Park",
    "latitude": 38.0347024,
    "longitude": -97.9137317,
    "state": "Kansas",
    "stateAbbr": "KS",
    "tags": {
      "leisure": "dog_park"
    }
  },
  {
    "id": 9032650506,
    "name": "Ronald O. Thomas Dog Park",
    "latitude": 37.4131346,
    "longitude": -94.6927989,
    "state": "Kansas",
    "stateAbbr": "KS",
    "tags": {
      "access": "yes",
      "dog": "yes",
      "leisure": "dog_park",
      "name": "Ronald O. Thomas Dog Park"
    }
  },
  {
    "id": 10001519373,
    "name": "Dog Park",
    "latitude": 39.1295496,
    "longitude": -100.8471915,
    "state": "Kansas",
    "stateAbbr": "KS",
    "tags": {
      "leisure": "dog_park"
    }
  },
  {
    "id": 10735534842,
    "name": "Dog Park",
    "latitude": 39.7670406,
    "longitude": -101.8041634,
    "state": "Kansas",
    "stateAbbr": "KS",
    "tags": {
      "leisure": "dog_park"
    }
  },
  {
    "id": 11463733522,
    "name": "Dog Park",
    "latitude": 39.2995083,
    "longitude": -94.7186528,
    "state": "Kansas",
    "stateAbbr": "KS",
    "tags": {
      "leisure": "dog_park"
    }
  },
  {
    "id": 12177471340,
    "name": "Dog Park",
    "latitude": 38.0637578,
    "longitude": -97.3377459,
    "state": "Kansas",
    "stateAbbr": "KS",
    "tags": {
      "leisure": "dog_park"
    }
  },
  {
    "id": 12177471341,
    "name": "Dog Park",
    "latitude": 38.0641482,
    "longitude": -97.3371665,
    "state": "Kansas",
    "stateAbbr": "KS",
    "tags": {
      "leisure": "dog_park"
    }
  },
  {
    "id": 13339076887,
    "name": "Dog Park",
    "latitude": 37.7237025,
    "longitude": -97.3217258,
    "state": "Kansas",
    "stateAbbr": "KS",
    "tags": {
      "leisure": "dog_park",
      "operator": "Love's"
    }
  },
  {
    "id": 111878986,
    "name": "Stoll Memorial Dog Park",
    "latitude": 38.9150935,
    "longitude": -94.7315639,
    "state": "Kansas",
    "stateAbbr": "KS",
    "tags": {
      "barrier": "fence",
      "dog": "unleashed",
      "leisure": "dog_park",
      "name": "Stoll Memorial Dog Park"
    }
  },
  {
    "id": 133570997,
    "name": "Large Dogs",
    "latitude": 39.1808369,
    "longitude": -96.5466076,
    "state": "Kansas",
    "stateAbbr": "KS",
    "tags": {
      "leisure": "dog_park",
      "name": "Large Dogs"
    }
  },
  {
    "id": 195460637,
    "name": "Hills Pet Nutrition Bark Park",
    "latitude": 39.0528849,
    "longitude": -95.7272454,
    "state": "Kansas",
    "stateAbbr": "KS",
    "tags": {
      "leisure": "dog_park",
      "name": "Hills Pet Nutrition Bark Park"
    }
  },
  {
    "id": 246044042,
    "name": "Happy Tails Dog Park",
    "latitude": 37.9153676,
    "longitude": -95.4085066,
    "state": "Kansas",
    "stateAbbr": "KS",
    "tags": {
      "leisure": "dog_park",
      "name": "Happy Tails Dog Park",
      "wheelchair": "yes"
    }
  },
  {
    "id": 253124582,
    "name": "Off Leash Dog Area",
    "latitude": 38.8382254,
    "longitude": -94.7581601,
    "state": "Kansas",
    "stateAbbr": "KS",
    "tags": {
      "access": "yes",
      "dog": "unleashed",
      "leisure": "dog_park",
      "name": "Off Leash Dog Area"
    }
  },
  {
    "id": 312362327,
    "name": "Stretch Dog Park",
    "latitude": 39.2550289,
    "longitude": -96.579285,
    "state": "Kansas",
    "stateAbbr": "KS",
    "tags": {
      "leisure": "dog_park",
      "name": "Stretch Dog Park"
    }
  },
  {
    "id": 369323842,
    "name": "Riverfront Park Off Leash Dog Area",
    "latitude": 38.997929,
    "longitude": -95.2377889,
    "state": "Kansas",
    "stateAbbr": "KS",
    "tags": {
      "leisure": "dog_park",
      "name": "Riverfront Park Off Leash Dog Area"
    }
  },
  {
    "id": 376786110,
    "name": "CiCo Dog Park",
    "latitude": 39.2020766,
    "longitude": -96.6204659,
    "state": "Kansas",
    "stateAbbr": "KS",
    "tags": {
      "barrier": "fence",
      "leisure": "dog_park",
      "name": "CiCo Dog Park"
    }
  },
  {
    "id": 431695192,
    "name": "Dog Run & Play Park",
    "latitude": 38.8799185,
    "longitude": -94.6685029,
    "state": "Kansas",
    "stateAbbr": "KS",
    "tags": {
      "leisure": "dog_park",
      "name": "Dog Run & Play Park"
    }
  },
  {
    "id": 446444121,
    "name": "Platte Landing Park Small Dog Off Leash Area",
    "latitude": 39.1825266,
    "longitude": -94.6952279,
    "state": "Kansas",
    "stateAbbr": "KS",
    "tags": {
      "dog": "unleashed",
      "leisure": "dog_park",
      "maxweight": "40",
      "name": "Platte Landing Park Small Dog Off Leash Area"
    }
  },
  {
    "id": 479225531,
    "name": "Corby Dog Park",
    "latitude": 39.7856213,
    "longitude": -94.8310513,
    "state": "Kansas",
    "stateAbbr": "KS",
    "tags": {
      "description": "Footprint Approximate",
      "leisure": "dog_park",
      "name": "Corby Dog Park"
    }
  },
  {
    "id": 479627800,
    "name": "Great Bend Dog Park",
    "latitude": 38.3714667,
    "longitude": -98.7983529,
    "state": "Kansas",
    "stateAbbr": "KS",
    "tags": {
      "leisure": "dog_park",
      "name": "Great Bend Dog Park"
    }
  },
  {
    "id": 540434440,
    "name": "K9 & Me Dog Park",
    "latitude": 39.0618624,
    "longitude": -94.8877686,
    "state": "Kansas",
    "stateAbbr": "KS",
    "tags": {
      "leisure": "dog_park",
      "name": "K9 & Me Dog Park"
    }
  },
  {
    "id": 550141094,
    "name": "Dog Park",
    "latitude": 39.3621079,
    "longitude": -101.0546023,
    "state": "Kansas",
    "stateAbbr": "KS",
    "tags": {
      "leisure": "dog_park"
    }
  },
  {
    "id": 552691379,
    "name": "Bremyer Dog Park",
    "latitude": 38.3578806,
    "longitude": -97.6307556,
    "state": "Kansas",
    "stateAbbr": "KS",
    "tags": {
      "addr:city": "McPherson",
      "addr:housenumber": "1000",
      "addr:postcode": "67460",
      "addr:state": "KS",
      "addr:street": "S Centennial Drive",
      "leisure": "dog_park",
      "name": "Bremyer Dog Park"
    }
  },
  {
    "id": 554099479,
    "name": "Waggin' Tails Dog Park",
    "latitude": 39.2875349,
    "longitude": -94.8958315,
    "state": "Kansas",
    "stateAbbr": "KS",
    "tags": {
      "leisure": "dog_park",
      "name": "Waggin' Tails Dog Park"
    }
  },
  {
    "id": 556384329,
    "name": "Leawoof Dog Park",
    "latitude": 38.9333821,
    "longitude": -94.611534,
    "state": "Kansas",
    "stateAbbr": "KS",
    "tags": {
      "leisure": "dog_park",
      "name": "Leawoof Dog Park"
    }
  },
  {
    "id": 574638627,
    "name": "Dog Park",
    "latitude": 38.9544985,
    "longitude": -94.7267073,
    "state": "Kansas",
    "stateAbbr": "KS",
    "tags": {
      "leisure": "dog_park"
    }
  },
  {
    "id": 620480001,
    "name": "Dog Park",
    "latitude": 39.2386204,
    "longitude": -94.6533902,
    "state": "Kansas",
    "stateAbbr": "KS",
    "tags": {
      "leisure": "dog_park",
      "wheelchair": "no"
    }
  },
  {
    "id": 635134723,
    "name": "WaterCrest Dog Park",
    "latitude": 38.9750593,
    "longitude": -94.7772121,
    "state": "Kansas",
    "stateAbbr": "KS",
    "tags": {
      "leisure": "dog_park",
      "name": "WaterCrest Dog Park"
    }
  },
  {
    "id": 678345631,
    "name": "Dog Park",
    "latitude": 39.0453153,
    "longitude": -94.8249545,
    "state": "Kansas",
    "stateAbbr": "KS",
    "tags": {
      "access": "customers",
      "leisure": "dog_park"
    }
  },
  {
    "id": 699095435,
    "name": "Dog Park",
    "latitude": 37.6867623,
    "longitude": -97.188467,
    "state": "Kansas",
    "stateAbbr": "KS",
    "tags": {
      "leisure": "dog_park"
    }
  },
  {
    "id": 710565408,
    "name": "Hays Dog Park",
    "latitude": 38.8814347,
    "longitude": -99.3574517,
    "state": "Kansas",
    "stateAbbr": "KS",
    "tags": {
      "leisure": "dog_park",
      "name": "Hays Dog Park",
      "website": "https://www.visithays.com/Facilities/Facility/Details/Dog-Park-172"
    }
  },
  {
    "id": 720658410,
    "name": "Scentral Bark",
    "latitude": 38.520818,
    "longitude": -98.7880968,
    "state": "Kansas",
    "stateAbbr": "KS",
    "tags": {
      "leisure": "dog_park",
      "name": "Scentral Bark"
    }
  },
  {
    "id": 735389401,
    "name": "Bark Park",
    "latitude": 38.6237761,
    "longitude": -95.2764345,
    "state": "Kansas",
    "stateAbbr": "KS",
    "tags": {
      "leisure": "dog_park",
      "name": "Bark Park",
      "operator": "City of Ottawa"
    }
  },
  {
    "id": 746823993,
    "name": "Dog Park",
    "latitude": 37.7070241,
    "longitude": -96.9732322,
    "state": "Kansas",
    "stateAbbr": "KS",
    "tags": {
      "leisure": "dog_park"
    }
  },
  {
    "id": 791485231,
    "name": "Buck Fund Dog Park",
    "latitude": 38.4275996,
    "longitude": -96.2188906,
    "state": "Kansas",
    "stateAbbr": "KS",
    "tags": {
      "leisure": "dog_park",
      "name": "Buck Fund Dog Park"
    }
  },
  {
    "id": 815794137,
    "name": "Dog Park",
    "latitude": 39.8547735,
    "longitude": -95.5084829,
    "state": "Kansas",
    "stateAbbr": "KS",
    "tags": {
      "leisure": "dog_park"
    }
  },
  {
    "id": 817370998,
    "name": "Dog Park",
    "latitude": 39.905895,
    "longitude": -95.7996696,
    "state": "Kansas",
    "stateAbbr": "KS",
    "tags": {
      "leisure": "dog_park"
    }
  },
  {
    "id": 817594951,
    "name": "Dog Park",
    "latitude": 38.9731999,
    "longitude": -95.3188467,
    "state": "Kansas",
    "stateAbbr": "KS",
    "tags": {
      "leisure": "dog_park"
    }
  },
  {
    "id": 824815675,
    "name": "Dog Park",
    "latitude": 38.8997783,
    "longitude": -94.7814859,
    "state": "Kansas",
    "stateAbbr": "KS",
    "tags": {
      "access": "residents",
      "leisure": "dog_park"
    }
  },
  {
    "id": 840702434,
    "name": "Dog Park",
    "latitude": 39.2097627,
    "longitude": -94.6588575,
    "state": "Kansas",
    "stateAbbr": "KS",
    "tags": {
      "leisure": "dog_park",
      "operator": "Klamm Road Apartment Homes",
      "wheelchair": "yes"
    }
  },
  {
    "id": 844065749,
    "name": "Dog Park",
    "latitude": 39.2502298,
    "longitude": -94.6461774,
    "state": "Kansas",
    "stateAbbr": "KS",
    "tags": {
      "leisure": "dog_park"
    }
  },
  {
    "id": 845504383,
    "name": "Dog Park",
    "latitude": 39.2205826,
    "longitude": -94.6036591,
    "state": "Kansas",
    "stateAbbr": "KS",
    "tags": {
      "leisure": "dog_park"
    }
  },
  {
    "id": 848098507,
    "name": "Claremont Dog Park",
    "latitude": 37.6660933,
    "longitude": -97.2289537,
    "state": "Kansas",
    "stateAbbr": "KS",
    "tags": {
      "access": "yes",
      "leisure": "dog_park",
      "name": "Claremont Dog Park"
    }
  },
  {
    "id": 882192575,
    "name": "Melvin Murry Dog Park",
    "latitude": 38.7625769,
    "longitude": -94.8431627,
    "state": "Kansas",
    "stateAbbr": "KS",
    "tags": {
      "leisure": "dog_park",
      "name": "Melvin Murry Dog Park"
    }
  },
  {
    "id": 888715096,
    "name": "Stonepost at Lakeside Apartment Dog Park",
    "latitude": 38.8782434,
    "longitude": -94.7441604,
    "state": "Kansas",
    "stateAbbr": "KS",
    "tags": {
      "leisure": "dog_park",
      "name": "Stonepost at Lakeside Apartment Dog Park",
      "wheelchair": "yes"
    }
  },
  {
    "id": 972729640,
    "name": "Dog Park",
    "latitude": 38.9225844,
    "longitude": -95.2563534,
    "state": "Kansas",
    "stateAbbr": "KS",
    "tags": {
      "leisure": "dog_park"
    }
  },
  {
    "id": 972753824,
    "name": "Dog Park",
    "latitude": 38.9274362,
    "longitude": -95.2664074,
    "state": "Kansas",
    "stateAbbr": "KS",
    "tags": {
      "leisure": "dog_park"
    }
  },
  {
    "id": 992404290,
    "name": "Dog Park",
    "latitude": 37.524321,
    "longitude": -97.2476171,
    "state": "Kansas",
    "stateAbbr": "KS",
    "tags": {
      "leisure": "dog_park"
    }
  },
  {
    "id": 992404291,
    "name": "Dog Park",
    "latitude": 37.5239929,
    "longitude": -97.2472465,
    "state": "Kansas",
    "stateAbbr": "KS",
    "tags": {
      "leisure": "dog_park"
    }
  },
  {
    "id": 1003718033,
    "name": "Dog Park",
    "latitude": 37.7471529,
    "longitude": -100.0236028,
    "state": "Kansas",
    "stateAbbr": "KS",
    "tags": {
      "leisure": "dog_park"
    }
  },
  {
    "id": 1004458407,
    "name": "Dog Park",
    "latitude": 37.3396563,
    "longitude": -95.2467266,
    "state": "Kansas",
    "stateAbbr": "KS",
    "tags": {
      "leisure": "dog_park"
    }
  },
  {
    "id": 1006876965,
    "name": "Dog Park",
    "latitude": 39.3597944,
    "longitude": -94.9423482,
    "state": "Kansas",
    "stateAbbr": "KS",
    "tags": {
      "leisure": "dog_park"
    }
  },
  {
    "id": 1041257226,
    "name": "Dog Park",
    "latitude": 38.80486,
    "longitude": -94.9113747,
    "state": "Kansas",
    "stateAbbr": "KS",
    "tags": {
      "access": "private",
      "leisure": "dog_park"
    }
  },
  {
    "id": 1051907297,
    "name": "Dog Park",
    "latitude": 39.3920299,
    "longitude": -94.8679431,
    "state": "Kansas",
    "stateAbbr": "KS",
    "tags": {
      "leisure": "dog_park"
    }
  },
  {
    "id": 1060002717,
    "name": "Dog Park",
    "latitude": 38.9735714,
    "longitude": -95.2914751,
    "state": "Kansas",
    "stateAbbr": "KS",
    "tags": {
      "barrier": "fence",
      "leisure": "dog_park"
    }
  },
  {
    "id": 1085940241,
    "name": "Prairie Dogs Dog Park",
    "latitude": 39.3267503,
    "longitude": -101.7268682,
    "state": "Kansas",
    "stateAbbr": "KS",
    "tags": {
      "leisure": "dog_park",
      "name": "Prairie Dogs Dog Park"
    }
  },
  {
    "id": 1105636003,
    "name": "Cedarbrooke Dog Park",
    "latitude": 37.6656703,
    "longitude": -97.2384133,
    "state": "Kansas",
    "stateAbbr": "KS",
    "tags": {
      "leisure": "dog_park",
      "name": "Cedarbrooke Dog Park"
    }
  },
  {
    "id": 1168569198,
    "name": "Dog Park",
    "latitude": 37.6688793,
    "longitude": -97.2201371,
    "state": "Kansas",
    "stateAbbr": "KS",
    "tags": {
      "leisure": "dog_park"
    }
  },
  {
    "id": 1183567713,
    "name": "Scott City Dog Park",
    "latitude": 38.4747301,
    "longitude": -100.9078179,
    "state": "Kansas",
    "stateAbbr": "KS",
    "tags": {
      "leisure": "dog_park",
      "name": "Scott City Dog Park"
    }
  },
  {
    "id": 1186828438,
    "name": "Garden City Dog Park",
    "latitude": 37.9610098,
    "longitude": -100.8463319,
    "state": "Kansas",
    "stateAbbr": "KS",
    "tags": {
      "leisure": "dog_park",
      "name": "Garden City Dog Park"
    }
  },
  {
    "id": 1204536449,
    "name": "Dog Park",
    "latitude": 39.3506212,
    "longitude": -94.9227306,
    "state": "Kansas",
    "stateAbbr": "KS",
    "tags": {
      "leisure": "dog_park"
    }
  },
  {
    "id": 1208662886,
    "name": "Shawnee Mission Park Off-Leash Dog Park",
    "latitude": 38.9792686,
    "longitude": -94.8039764,
    "state": "Kansas",
    "stateAbbr": "KS",
    "tags": {
      "dog": "unleashed",
      "leisure": "dog_park",
      "name": "Shawnee Mission Park Off-Leash Dog Park"
    }
  },
  {
    "id": 1219615459,
    "name": "Dog Park",
    "latitude": 37.2280061,
    "longitude": -96.9726986,
    "state": "Kansas",
    "stateAbbr": "KS",
    "tags": {
      "leisure": "dog_park"
    }
  },
  {
    "id": 1238469790,
    "name": "Dog Park",
    "latitude": 38.9453589,
    "longitude": -95.2750688,
    "state": "Kansas",
    "stateAbbr": "KS",
    "tags": {
      "leisure": "dog_park"
    }
  },
  {
    "id": 1238502573,
    "name": "Dog Park",
    "latitude": 38.9364463,
    "longitude": -95.2650503,
    "state": "Kansas",
    "stateAbbr": "KS",
    "tags": {
      "leisure": "dog_park"
    }
  },
  {
    "id": 1271378306,
    "name": "Dog Park",
    "latitude": 38.9869654,
    "longitude": -95.6012244,
    "state": "Kansas",
    "stateAbbr": "KS",
    "tags": {
      "leisure": "dog_park"
    }
  },
  {
    "id": 1277946512,
    "name": "Dog Park",
    "latitude": 38.9722391,
    "longitude": -94.7854444,
    "state": "Kansas",
    "stateAbbr": "KS",
    "tags": {
      "access": "private",
      "leisure": "dog_park"
    }
  },
  {
    "id": 1284676184,
    "name": "Saint John's Dog Park",
    "latitude": 39.1140977,
    "longitude": -94.6182745,
    "state": "Kansas",
    "stateAbbr": "KS",
    "tags": {
      "leisure": "dog_park",
      "name": "Saint John's Dog Park"
    }
  },
  {
    "id": 1296428775,
    "name": "Dog Park",
    "latitude": 37.2659846,
    "longitude": -97.4013163,
    "state": "Kansas",
    "stateAbbr": "KS",
    "tags": {
      "leisure": "dog_park"
    }
  },
  {
    "id": 1315636820,
    "name": "Dog Park",
    "latitude": 38.9979423,
    "longitude": -95.2306722,
    "state": "Kansas",
    "stateAbbr": "KS",
    "tags": {
      "leisure": "dog_park"
    }
  },
  {
    "id": 1328149090,
    "name": "Paola Dog Park",
    "latitude": 38.5840552,
    "longitude": -94.8472894,
    "state": "Kansas",
    "stateAbbr": "KS",
    "tags": {
      "access": "yes",
      "leisure": "dog_park",
      "name": "Paola Dog Park",
      "operator": "City of Paola",
      "operator:type": "government"
    }
  },
  {
    "id": 1331527347,
    "name": "Dog Park",
    "latitude": 38.976969,
    "longitude": -95.7039881,
    "state": "Kansas",
    "stateAbbr": "KS",
    "tags": {
      "leisure": "dog_park"
    }
  },
  {
    "id": 1337852870,
    "name": "Dog Park",
    "latitude": 39.8285734,
    "longitude": -97.6225915,
    "state": "Kansas",
    "stateAbbr": "KS",
    "tags": {
      "leisure": "dog_park"
    }
  },
  {
    "id": 1346774536,
    "name": "E. H. Young Riverfront Park Off-Leash Dog Park Small Dog Area",
    "latitude": 39.1645978,
    "longitude": -94.6166593,
    "state": "Kansas",
    "stateAbbr": "KS",
    "tags": {
      "access": "yes",
      "dog": "unleashed",
      "leisure": "dog_park",
      "maxweight": "30",
      "name": "E. H. Young Riverfront Park Off-Leash Dog Park Small Dog Area",
      "operator": "City of Riverside",
      "operator:type": "public"
    }
  },
  {
    "id": 1346985805,
    "name": "Kill Creek Streamway  Off Leash Area",
    "latitude": 38.9585265,
    "longitude": -94.9735615,
    "state": "Kansas",
    "stateAbbr": "KS",
    "tags": {
      "access": "yes",
      "dog": "unleashed",
      "leisure": "dog_park",
      "name": "Kill Creek Streamway  Off Leash Area",
      "operator": "Johnson County Park and Recreation District",
      "operator:type": "public"
    }
  },
  {
    "id": 1382820180,
    "name": "Dog Park",
    "latitude": 37.6883193,
    "longitude": -97.1196913,
    "state": "Kansas",
    "stateAbbr": "KS",
    "tags": {
      "leisure": "dog_park"
    }
  },
  {
    "id": 1389318090,
    "name": "Dog Park",
    "latitude": 38.5733665,
    "longitude": -95.265909,
    "state": "Kansas",
    "stateAbbr": "KS",
    "tags": {
      "barrier": "fence",
      "check_date": "2025-05-24",
      "dog": "designated",
      "leisure": "dog_park",
      "operator": "Love's Travel Stop",
      "source": "survey"
    }
  },
  {
    "id": 1394544716,
    "name": "Small Dog Area",
    "latitude": 38.8368562,
    "longitude": -94.760269,
    "state": "Kansas",
    "stateAbbr": "KS",
    "tags": {
      "access": "yes",
      "dog": "unleashed",
      "leisure": "dog_park",
      "name": "Small Dog Area",
      "operator": "Johnson County Parks and Recreation",
      "operator:type": "public",
      "website": "https://jcprd.com/Facilities/Facility/Details/Heritage-Park-22"
    }
  },
  {
    "id": 1396056125,
    "name": "Dog Park",
    "latitude": 37.6959178,
    "longitude": -96.9872238,
    "state": "Kansas",
    "stateAbbr": "KS",
    "tags": {
      "leisure": "dog_park",
      "operator": "City of Augusta",
      "operator:type": "public"
    }
  },
  {
    "id": 1408441332,
    "name": "Dog Park",
    "latitude": 38.9654516,
    "longitude": -94.7125336,
    "state": "Kansas",
    "stateAbbr": "KS",
    "tags": {
      "access": "private",
      "leisure": "dog_park"
    }
  },
  {
    "id": 1413436851,
    "name": "Dog Park",
    "latitude": 39.7217447,
    "longitude": -94.7869602,
    "state": "Kansas",
    "stateAbbr": "KS",
    "tags": {
      "brand": "Love's",
      "brand:wikidata": "Q1872496",
      "leisure": "dog_park"
    }
  },
  {
    "id": 1413437379,
    "name": "Dog Park",
    "latitude": 38.9340178,
    "longitude": -97.2588217,
    "state": "Kansas",
    "stateAbbr": "KS",
    "tags": {
      "brand": "Love's",
      "brand:wikidata": "Q1872496",
      "leisure": "dog_park"
    }
  },
  {
    "id": 1413612742,
    "name": "Dog Park",
    "latitude": 39.1272309,
    "longitude": -94.8395344,
    "state": "Kansas",
    "stateAbbr": "KS",
    "tags": {
      "leisure": "dog_park"
    }
  },
  {
    "id": 1414080178,
    "name": "Black Squirrel Bark Park",
    "latitude": 39.8355445,
    "longitude": -96.6475794,
    "state": "Kansas",
    "stateAbbr": "KS",
    "tags": {
      "access": "yes",
      "leisure": "dog_park",
      "name": "Black Squirrel Bark Park",
      "operator": "Landoll",
      "operator:type": "community"
    }
  },
  {
    "id": 1414466748,
    "name": "Dog Park",
    "latitude": 37.7119127,
    "longitude": -97.1243244,
    "state": "Kansas",
    "stateAbbr": "KS",
    "tags": {
      "leisure": "dog_park"
    }
  },
  {
    "id": 1417468176,
    "name": "Dog Park",
    "latitude": 38.974401,
    "longitude": -94.7708215,
    "state": "Kansas",
    "stateAbbr": "KS",
    "tags": {
      "leisure": "dog_park"
    }
  },
  {
    "id": 1427958130,
    "name": "Shawnee Lake Off-Leash Dog Area",
    "latitude": 38.9952583,
    "longitude": -95.6352902,
    "state": "Kansas",
    "stateAbbr": "KS",
    "tags": {
      "access": "yes",
      "dog": "unleashed",
      "leisure": "dog_park",
      "name": "Shawnee Lake Off-Leash Dog Area"
    }
  },
  {
    "id": 1451551091,
    "name": "Welborn Dog Park",
    "latitude": 39.1345152,
    "longitude": -94.7090836,
    "state": "Kansas",
    "stateAbbr": "KS",
    "tags": {
      "access": "yes",
      "leisure": "dog_park",
      "name": "Welborn Dog Park",
      "website": "https://www.facebook.com/share/1DdB5NWNJn/?mibextid=wwXIfr"
    }
  },
  {
    "id": 1456556075,
    "name": "Country Acres Dog Park",
    "latitude": 37.6959521,
    "longitude": -97.4285951,
    "state": "Kansas",
    "stateAbbr": "KS",
    "tags": {
      "addr:city": "Wichita",
      "addr:housenumber": "750",
      "addr:postcode": "67212",
      "addr:state": "KS",
      "addr:street": "North Country Acres Avenue",
      "leisure": "dog_park",
      "name": "Country Acres Dog Park",
      "source": "esri_USDOT_Kansas",
      "website": "https://www.wichita.gov/Facilities/Facility/Details/Country-Acres-Dog-Park-276"
    }
  },
  {
    "id": 5465734,
    "name": "Mutt Run",
    "latitude": 38.9309484,
    "longitude": -95.3212718,
    "state": "Kansas",
    "stateAbbr": "KS",
    "tags": {
      "access": "yes",
      "dog": "unleashed",
      "leisure": "dog_park",
      "name": "Mutt Run",
      "type": "multipolygon"
    }
  },
  {
    "id": 19619019,
    "name": "Dog Park",
    "latitude": 37.6586016,
    "longitude": -97.2884924,
    "state": "Kansas",
    "stateAbbr": "KS",
    "tags": {
      "leisure": "dog_park",
      "type": "multipolygon"
    }
  },
  {
    "id": 19770125,
    "name": "Dog Park",
    "latitude": 37.7418124,
    "longitude": -97.302763,
    "state": "Kansas",
    "stateAbbr": "KS",
    "tags": {
      "leisure": "dog_park",
      "surface": "grass",
      "type": "multipolygon"
    }
  },
  {
    "id": 19818291,
    "name": "Arson Canine Ashley's Memorial Dog Park",
    "latitude": 37.6274997,
    "longitude": -97.3109491,
    "state": "Kansas",
    "stateAbbr": "KS",
    "tags": {
      "leisure": "dog_park",
      "name": "Arson Canine Ashley's Memorial Dog Park",
      "operator": "City of Wichita",
      "type": "multipolygon",
      "website": "https://www.wichita.gov/Facilities/Facility/Details/Chapin-Ashley-Dog-Park-8"
    }
  }
]