[
  {
    "id": 4696336446,
    "name": "Camellia Bark Park",
    "latitude": 30.2459577,
    "longitude": -89.7765449,
    "state": "Louisiana",
    "stateAbbr": "LA",
    "tags": {
      "leisure": "dog_park",
      "name": "Camellia Bark Park"
    }
  },
  {
    "id": 12712366204,
    "name": "barking lot",
    "latitude": 30.5428423,
    "longitude": -89.663442,
    "state": "Louisiana",
    "stateAbbr": "LA",
    "tags": {
      "leisure": "dog_park",
      "name": "barking lot"
    }
  },
  {
    "id": 484722801,
    "name": "Central Bark at Keg and Barrel Park",
    "latitude": 31.321335,
    "longitude": -89.2971151,
    "state": "Louisiana",
    "stateAbbr": "LA",
    "tags": {
      "alt_name": "See Spot Run Dog Park",
      "leisure": "dog_park",
      "name": "Central Bark at Keg and Barrel Park",
      "website": "https://www.facebook.com/runwithspot/"
    }
  },
  {
    "id": 647001976,
    "name": "Small Dog Park",
    "latitude": 31.3447235,
    "longitude": -89.4010994,
    "state": "Louisiana",
    "stateAbbr": "LA",
    "tags": {
      "leisure": "dog_park",
      "name": "Small Dog Park",
      "opening_hours": "sunrise-sunset",
      "operator": "Fields of Barktopia"
    }
  },
  {
    "id": 663572071,
    "name": "City of Petal Dog Park",
    "latitude": 31.3287306,
    "longitude": -89.2622603,
    "state": "Louisiana",
    "stateAbbr": "LA",
    "tags": {
      "leisure": "dog_park",
      "name": "City of Petal Dog Park"
    }
  },
  {
    "id": 1413447014,
    "name": "Dog Park",
    "latitude": 32.3222521,
    "longitude": -89.3428293,
    "state": "Louisiana",
    "stateAbbr": "LA",
    "tags": {
      "brand": "Love's",
      "brand:wikidata": "Q1872496",
      "leisure": "dog_park"
    }
  },
  {
    "id": 1413447813,
    "name": "Dog Park",
    "latitude": 31.8746832,
    "longitude": -89.7552925,
    "state": "Louisiana",
    "stateAbbr": "LA",
    "tags": {
      "brand": "Love's",
      "brand:wikidata": "Q1872496",
      "leisure": "dog_park"
    }
  },
  {
    "id": 1413447869,
    "name": "Dog Park",
    "latitude": 31.7841362,
    "longitude": -89.057244,
    "state": "Louisiana",
    "stateAbbr": "LA",
    "tags": {
      "brand": "Love's",
      "brand:wikidata": "Q1872496",
      "leisure": "dog_park"
    }
  },
  {
    "id": 1413449422,
    "name": "Dog Park",
    "latitude": 30.8475341,
    "longitude": -89.4988864,
    "state": "Louisiana",
    "stateAbbr": "LA",
    "tags": {
      "brand": "Love's",
      "brand:wikidata": "Q1872496",
      "leisure": "dog_park"
    }
  },
  {
    "id": 1413450317,
    "name": "Dog Park",
    "latitude": 30.4192433,
    "longitude": -89.1909045,
    "state": "Louisiana",
    "stateAbbr": "LA",
    "tags": {
      "brand": "Love's",
      "brand:wikidata": "Q1872496",
      "leisure": "dog_park"
    }
  }
]