[
  {
    "id": 313025472,
    "name": "Falkland Chase Dog Park",
    "latitude": 38.9934524,
    "longitude": -77.0352669,
    "state": "Maryland",
    "stateAbbr": "MD",
    "tags": {
      "access": "private",
      "leisure": "dog_park",
      "name": "Falkland Chase Dog Park"
    }
  },
  {
    "id": 2340527003,
    "name": "Dog Park",
    "latitude": 39.182588,
    "longitude": -76.669298,
    "state": "Maryland",
    "stateAbbr": "MD",
    "tags": {
      "leisure": "dog_park"
    }
  },
  {
    "id": 2401937426,
    "name": "Pet Corral",
    "latitude": 39.5739102,
    "longitude": -77.7983247,
    "state": "Maryland",
    "stateAbbr": "MD",
    "tags": {
      "leisure": "dog_park",
      "name": "Pet Corral"
    }
  },
  {
    "id": 2453225717,
    "name": "Glencarlyn Dog Park",
    "latitude": 38.8619773,
    "longitude": -77.1170584,
    "state": "Maryland",
    "stateAbbr": "MD",
    "tags": {
      "leisure": "dog_park",
      "name": "Glencarlyn Dog Park"
    }
  },
  {
    "id": 2798580941,
    "name": "Dog Park",
    "latitude": 39.6344544,
    "longitude": -77.8362153,
    "state": "Maryland",
    "stateAbbr": "MD",
    "tags": {
      "leisure": "dog_park"
    }
  },
  {
    "id": 4000091495,
    "name": "Dog Park",
    "latitude": 38.2444706,
    "longitude": -76.4482496,
    "state": "Maryland",
    "stateAbbr": "MD",
    "tags": {
      "leisure": "dog_park",
      "source": "Anonymous map note"
    }
  },
  {
    "id": 584325384,
    "name": "Wurzburg Dog Park",
    "latitude": 39.4527999,
    "longitude": -77.9803869,
    "state": "Maryland",
    "stateAbbr": "MD",
    "tags": {
      "addr:city": "Martinsburg",
      "addr:housenumber": "400",
      "addr:postcode": "25401",
      "addr:state": "WV",
      "addr:street": "Mall Drive",
      "leisure": "dog_park",
      "name": "Wurzburg Dog Park"
    }
  },
  {
    "id": 5762575642,
    "name": "Jacobs Forest Dog Meetup",
    "latitude": 39.1172163,
    "longitude": -76.713257,
    "state": "Maryland",
    "stateAbbr": "MD",
    "tags": {
      "leisure": "dog_park",
      "name": "Jacobs Forest Dog Meetup"
    }
  },
  {
    "id": 414037196,
    "name": "Quail Run Dog Park",
    "latitude": 39.1297629,
    "longitude": -76.707533,
    "state": "Maryland",
    "stateAbbr": "MD",
    "tags": {
      "leisure": "dog_park",
      "name": "Quail Run Dog Park"
    }
  },
  {
    "id": 6302123123,
    "name": "Monticello Dog Park",
    "latitude": 38.8333579,
    "longitude": -77.069812,
    "state": "Maryland",
    "stateAbbr": "MD",
    "tags": {
      "barrier": "none",
      "leisure": "dog_park",
      "lit": "no",
      "name": "Monticello Dog Park",
      "source": "GPS"
    }
  },
  {
    "id": 6302123124,
    "name": "Chinquapin Dog Park",
    "latitude": 38.8223277,
    "longitude": -77.0818323,
    "state": "Maryland",
    "stateAbbr": "MD",
    "tags": {
      "barrier": "none",
      "leisure": "dog_park",
      "lit": "no",
      "name": "Chinquapin Dog Park"
    }
  },
  {
    "id": 6302123125,
    "name": "Timberbranch Dog Park",
    "latitude": 38.8213539,
    "longitude": -77.0760065,
    "state": "Maryland",
    "stateAbbr": "MD",
    "tags": {
      "barrier": "none",
      "leisure": "dog_park",
      "lit": "no",
      "name": "Timberbranch Dog Park",
      "source": "GPS"
    }
  },
  {
    "id": 6302123129,
    "name": "Windmill Hill Dog Park",
    "latitude": 38.7981521,
    "longitude": -77.0412451,
    "state": "Maryland",
    "stateAbbr": "MD",
    "tags": {
      "barrier": "none",
      "leisure": "dog_park",
      "lit": "no",
      "name": "Windmill Hill Dog Park",
      "source": "GPS"
    }
  },
  {
    "id": 6302123130,
    "name": "Founders Dog Park",
    "latitude": 38.8084111,
    "longitude": -77.038976,
    "state": "Maryland",
    "stateAbbr": "MD",
    "tags": {
      "barrier": "none",
      "leisure": "dog_park",
      "lit": "no",
      "name": "Founders Dog Park",
      "source": "GPS"
    }
  },
  {
    "id": 6302123134,
    "name": "Mount Jefferson Dog Park",
    "latitude": 38.8303924,
    "longitude": -77.0554917,
    "state": "Maryland",
    "stateAbbr": "MD",
    "tags": {
      "barrier": "none",
      "leisure": "dog_park",
      "lit": "no",
      "name": "Mount Jefferson Dog Park"
    }
  },
  {
    "id": 6302123135,
    "name": "Four Mile Run Dog Park",
    "latitude": 38.8405527,
    "longitude": -77.0601989,
    "state": "Maryland",
    "stateAbbr": "MD",
    "tags": {
      "barrier": "none",
      "leisure": "dog_park",
      "lit": "no",
      "name": "Four Mile Run Dog Park",
      "source": "GPS"
    }
  },
  {
    "id": 6302123136,
    "name": "Tarleton Dog Park",
    "latitude": 38.8085636,
    "longitude": -77.1094161,
    "state": "Maryland",
    "stateAbbr": "MD",
    "tags": {
      "barrier": "fence",
      "leisure": "dog_park",
      "lit": "no",
      "name": "Tarleton Dog Park",
      "source": "GPS"
    }
  },
  {
    "id": 6302123137,
    "name": "Fort Williams Dog Park",
    "latitude": 38.8140311,
    "longitude": -77.0942965,
    "state": "Maryland",
    "stateAbbr": "MD",
    "tags": {
      "barrier": "none",
      "leisure": "dog_park",
      "lit": "no",
      "name": "Fort Williams Dog Park",
      "source": "GPS"
    }
  },
  {
    "id": 6302123138,
    "name": "Ben Brenman Dog Park",
    "latitude": 38.8068769,
    "longitude": -77.1132141,
    "state": "Maryland",
    "stateAbbr": "MD",
    "tags": {
      "barrier": "fence",
      "leisure": "dog_park",
      "lit": "yes",
      "name": "Ben Brenman Dog Park",
      "source": "GPS"
    }
  },
  {
    "id": 6302123140,
    "name": "Chambliss Dog Park",
    "latitude": 38.83583,
    "longitude": -77.127741,
    "state": "Maryland",
    "stateAbbr": "MD",
    "tags": {
      "barrier": "none",
      "leisure": "dog_park",
      "lit": "no",
      "name": "Chambliss Dog Park",
      "source": "GPS"
    }
  },
  {
    "id": 6325070587,
    "name": "BARC Park",
    "latitude": 39.4513335,
    "longitude": -76.8146283,
    "state": "Maryland",
    "stateAbbr": "MD",
    "tags": {
      "leisure": "dog_park",
      "name": "BARC Park"
    }
  },
  {
    "id": 6486895687,
    "name": "Kimco Dog Park",
    "latitude": 39.5418733,
    "longitude": -76.3258909,
    "state": "Maryland",
    "stateAbbr": "MD",
    "tags": {
      "leisure": "dog_park",
      "name": "Kimco Dog Park"
    }
  },
  {
    "id": 6965004255,
    "name": "Dog Park",
    "latitude": 38.3797038,
    "longitude": -75.3097708,
    "state": "Maryland",
    "stateAbbr": "MD",
    "tags": {
      "leisure": "dog_park"
    }
  },
  {
    "id": 7007183878,
    "name": "Dog Park",
    "latitude": 39.4553343,
    "longitude": -75.9703823,
    "state": "Maryland",
    "stateAbbr": "MD",
    "tags": {
      "leisure": "dog_park"
    }
  },
  {
    "id": 7188647221,
    "name": "Dog Park",
    "latitude": 39.4652609,
    "longitude": -76.3034768,
    "state": "Maryland",
    "stateAbbr": "MD",
    "tags": {
      "leisure": "dog_park"
    }
  },
  {
    "id": 7570294590,
    "name": "Garrett County Dog Park",
    "latitude": 39.5731998,
    "longitude": -79.3353079,
    "state": "Maryland",
    "stateAbbr": "MD",
    "tags": {
      "access": "yes",
      "addr:city": "Accident",
      "addr:housenumber": "1249",
      "addr:postcode": "21521",
      "addr:state": "MD",
      "addr:street": "Bumble Bee Road",
      "leisure": "dog_park",
      "name": "Garrett County Dog Park",
      "operator": "Deep Creek Lake Lions Club",
      "operator:type": "community",
      "website": "https://deepcreeklions.org/"
    }
  },
  {
    "id": 8723631352,
    "name": "Westmore Dog Park",
    "latitude": 38.8483638,
    "longitude": -77.3277316,
    "state": "Maryland",
    "stateAbbr": "MD",
    "tags": {
      "addr:city": "Fairfax",
      "addr:housenumber": "11000",
      "addr:postcode": "22030",
      "addr:state": "VA",
      "addr:street": "Berry Street",
      "leisure": "dog_park",
      "name": "Westmore Dog Park",
      "website": "https://www.fairfaxva.gov/government/parks-recreation/dog-park"
    }
  },
  {
    "id": 8920830681,
    "name": "Starbarks Dog Park",
    "latitude": 38.7915368,
    "longitude": -77.1390127,
    "state": "Maryland",
    "stateAbbr": "MD",
    "tags": {
      "leisure": "dog_park",
      "name": "Starbarks Dog Park"
    }
  },
  {
    "id": 9609226077,
    "name": "Dog Park",
    "latitude": 39.3022735,
    "longitude": -76.6200304,
    "state": "Maryland",
    "stateAbbr": "MD",
    "tags": {
      "leisure": "dog_park",
      "wheelchair": "no"
    }
  },
  {
    "id": 10274100467,
    "name": "Lee Farnum Johnson Jr. Memorial Dog Park",
    "latitude": 38.9552086,
    "longitude": -77.41073,
    "state": "Maryland",
    "stateAbbr": "MD",
    "tags": {
      "leisure": "dog_park",
      "name": "Lee Farnum Johnson Jr. Memorial Dog Park"
    }
  },
  {
    "id": 10899672472,
    "name": "Dog Park",
    "latitude": 38.9627678,
    "longitude": -77.5597316,
    "state": "Maryland",
    "stateAbbr": "MD",
    "tags": {
      "access": "private",
      "leisure": "dog_park"
    }
  },
  {
    "id": 11866963526,
    "name": "Dog Park",
    "latitude": 39.3488267,
    "longitude": -77.5999746,
    "state": "Maryland",
    "stateAbbr": "MD",
    "tags": {
      "leisure": "dog_park",
      "note": "Not sure of exact location / size"
    }
  },
  {
    "id": 12057152607,
    "name": "Dog Park",
    "latitude": 39.4767494,
    "longitude": -76.6023635,
    "state": "Maryland",
    "stateAbbr": "MD",
    "tags": {
      "access": "customers",
      "leisure": "dog_park",
      "operator:type": "private"
    }
  },
  {
    "id": 12180653303,
    "name": "Dog Park",
    "latitude": 39.1860003,
    "longitude": -76.7553096,
    "state": "Maryland",
    "stateAbbr": "MD",
    "tags": {
      "leisure": "dog_park",
      "operator": "The Forge"
    }
  },
  {
    "id": 12263305370,
    "name": "Dog Park",
    "latitude": 39.1778481,
    "longitude": -77.0238781,
    "state": "Maryland",
    "stateAbbr": "MD",
    "tags": {
      "access": "private",
      "leisure": "dog_park",
      "operator": "Rivermist Pet Lodg",
      "operator:type": "private"
    }
  },
  {
    "id": 12656903341,
    "name": "Woods at Addison Dog Park",
    "latitude": 38.8746063,
    "longitude": -76.8931653,
    "state": "Maryland",
    "stateAbbr": "MD",
    "tags": {
      "leisure": "dog_park",
      "name": "Woods at Addison Dog Park"
    }
  },
  {
    "id": 12996096834,
    "name": "Dog Park",
    "latitude": 39.0621074,
    "longitude": -77.1515295,
    "state": "Maryland",
    "stateAbbr": "MD",
    "tags": {
      "fixme": "resurvey",
      "leisure": "dog_park"
    }
  },
  {
    "id": 13082499749,
    "name": "Dog Park",
    "latitude": 39.1087482,
    "longitude": -76.8328093,
    "state": "Maryland",
    "stateAbbr": "MD",
    "tags": {
      "leisure": "dog_park"
    }
  },
  {
    "id": 13665532601,
    "name": "Dog Park",
    "latitude": 39.1460091,
    "longitude": -77.1970525,
    "state": "Maryland",
    "stateAbbr": "MD",
    "tags": {
      "leisure": "dog_park"
    }
  },
  {
    "id": 38888910,
    "name": "Dog Park",
    "latitude": 38.307163,
    "longitude": -77.4707488,
    "state": "Maryland",
    "stateAbbr": "MD",
    "tags": {
      "leisure": "dog_park"
    }
  },
  {
    "id": 48207326,
    "name": "S Street Dog Park",
    "latitude": 38.914392,
    "longitude": -77.0387165,
    "state": "Maryland",
    "stateAbbr": "MD",
    "tags": {
      "dcgis:address": "New Hampshire Ave.,17th St.,S St.,NW",
      "dcgis:area": "17",
      "dcgis:propid": "DPR0144",
      "dcgis:res_num": "144",
      "dcgis:use_type": "TRIANGLE",
      "dcgis:ward": "2",
      "dcgis:zone_": "04",
      "leisure": "dog_park",
      "name": "S Street Dog Park",
      "opening_hours": "Mo-Fr 07:00-20:00; Sa-Su 08:00-20:00",
      "phone": "+1 202-673-7647",
      "website": "https://dpr.dc.gov/"
    }
  },
  {
    "id": 79289648,
    "name": "Baron Cameron Dog Park",
    "latitude": 38.9768773,
    "longitude": -77.335194,
    "state": "Maryland",
    "stateAbbr": "MD",
    "tags": {
      "access": "yes",
      "addr:city": "Reston",
      "addr:housenumber": "11300",
      "addr:postcode": "20194",
      "addr:state": "VA",
      "addr:street": "Baron Cameron Avenue",
      "barrier": "fence",
      "dog": "unleashed",
      "leisure": "dog_park",
      "name": "Baron Cameron Dog Park",
      "operator": "Fairfax County Park Authority",
      "operator:type": "public"
    }
  },
  {
    "id": 89905511,
    "name": "Banneker Dog Park",
    "latitude": 38.8821688,
    "longitude": -77.1559836,
    "state": "Maryland",
    "stateAbbr": "MD",
    "tags": {
      "access": "yes",
      "addr:city": "Arlington",
      "addr:housenumber": "1680",
      "addr:postcode": "22205",
      "addr:state": "VA",
      "addr:street": "North Sycamore Street",
      "dog": "yes",
      "leisure": "dog_park",
      "name": "Banneker Dog Park",
      "opening_hours": "sunrise-sunset",
      "operator": "Arlington County Department of Parks and Recreation",
      "website": "https://www.arlingtonva.us/Government/Departments/Parks-Recreation/Locations/Parks/Benjamin-Banneker-Park"
    }
  },
  {
    "id": 91278689,
    "name": "Dog Park",
    "latitude": 38.988962,
    "longitude": -76.8792466,
    "state": "Maryland",
    "stateAbbr": "MD",
    "tags": {
      "leisure": "dog_park"
    }
  },
  {
    "id": 152434767,
    "name": "Duke Street Dog Park",
    "latitude": 38.8122399,
    "longitude": -77.1150882,
    "state": "Maryland",
    "stateAbbr": "MD",
    "tags": {
      "barrier": "fence",
      "designation": "dog_park",
      "leisure": "dog_park",
      "lit": "no",
      "name": "Duke Street Dog Park",
      "source": "GPS",
      "wheelchair": "yes"
    }
  },
  {
    "id": 162743181,
    "name": "Canton Dog Park",
    "latitude": 39.2781608,
    "longitude": -76.5699005,
    "state": "Maryland",
    "stateAbbr": "MD",
    "tags": {
      "barrier": "fence",
      "leisure": "dog_park",
      "name": "Canton Dog Park",
      "opening_hours": "24/7"
    }
  },
  {
    "id": 167531834,
    "name": "Dog Park",
    "latitude": 38.9182746,
    "longitude": -77.0154698,
    "state": "Maryland",
    "stateAbbr": "MD",
    "tags": {
      "barrier": "fence",
      "leisure": "dog_park"
    }
  },
  {
    "id": 170977229,
    "name": "Worthington Dog Park",
    "latitude": 39.2512176,
    "longitude": -76.7975302,
    "state": "Maryland",
    "stateAbbr": "MD",
    "tags": {
      "access": "permit",
      "addr:city": "Ellicott City",
      "addr:housenumber": "8190",
      "addr:postcode": "21043",
      "addr:street": "Hillsborough Road",
      "barrier": "fence",
      "dog": "unleashed",
      "fence_type": "chain",
      "leisure": "dog_park",
      "name": "Worthington Dog Park",
      "operator": "Howard County Recreation & Parks",
      "operator:type": "government",
      "website": "https://www.howardcountymd.gov/recreation-parks/parks-playgrounds-trails#worthington-dog-park-in-ellicott-city"
    }
  },
  {
    "id": 170977234,
    "name": "Worthington Dog Park",
    "latitude": 39.2499819,
    "longitude": -76.796348,
    "state": "Maryland",
    "stateAbbr": "MD",
    "tags": {
      "barrier": "fence",
      "fence_type": "chain",
      "leisure": "dog_park",
      "name": "Worthington Dog Park"
    }
  },
  {
    "id": 173553541,
    "name": "Simpson Stadium Dog Park",
    "latitude": 38.8213667,
    "longitude": -77.0520786,
    "state": "Maryland",
    "stateAbbr": "MD",
    "tags": {
      "access": "yes",
      "addr:city": "Alexandria",
      "addr:housenumber": "609",
      "addr:postcode": "22301",
      "addr:state": "VA",
      "addr:street": "East Monroe Avenue",
      "barrier": "fence",
      "leisure": "dog_park",
      "name": "Simpson Stadium Dog Park"
    }
  },
  {
    "id": 177921313,
    "name": "Wheaton Dog Park",
    "latitude": 39.053569,
    "longitude": -77.0353664,
    "state": "Maryland",
    "stateAbbr": "MD",
    "tags": {
      "leisure": "dog_park",
      "name": "Wheaton Dog Park",
      "wikidata": "Q49579735"
    }
  },
  {
    "id": 186907279,
    "name": "Madison Community Canine Area",
    "latitude": 38.9230084,
    "longitude": -77.1228762,
    "state": "Maryland",
    "stateAbbr": "MD",
    "tags": {
      "access": "yes",
      "addr:city": "Arlington",
      "addr:housenumber": "3829",
      "addr:postcode": "22207",
      "addr:state": "VA",
      "addr:street": "North Stafford Street",
      "alt_name": "Fort Ethan Allen Dog Park",
      "barrier": "fence",
      "dog": "yes",
      "leisure": "dog_park",
      "name": "Madison Community Canine Area",
      "opening_hours": "sunrise-(sunset+00:30)",
      "operator": "Arlington County Department of Parks and Recreation",
      "website": "https://www.arlingtonva.us/Government/Departments/Parks-Recreation/Locations/Parks/Fort-Ethan-Allen-Park/Fort-Ethan-Allen-Dog-Park"
    }
  },
  {
    "id": 200374287,
    "name": "Paw Point Dog Park",
    "latitude": 39.3813485,
    "longitude": -76.641637,
    "state": "Maryland",
    "stateAbbr": "MD",
    "tags": {
      "access": "private",
      "leisure": "dog_park",
      "name": "Paw Point Dog Park",
      "wheelchair": "limited"
    }
  },
  {
    "id": 202222511,
    "name": "Dog Park",
    "latitude": 38.9315871,
    "longitude": -76.505031,
    "state": "Maryland",
    "stateAbbr": "MD",
    "tags": {
      "access": "yes",
      "dog": "yes",
      "internet_access": "no",
      "leisure": "dog_park",
      "operator:type": "public"
    }
  },
  {
    "id": 204818508,
    "name": "Dog Park",
    "latitude": 39.1131373,
    "longitude": -77.2115871,
    "state": "Maryland",
    "stateAbbr": "MD",
    "tags": {
      "description": "Upper level of the city's dog exercise area. It is approximately 17,000 sq. ft. and has a bluestone dust-based ground cover.",
      "leisure": "dog_park",
      "surface": "compacted"
    }
  },
  {
    "id": 212013847,
    "name": "James Hunter Park",
    "latitude": 38.8883352,
    "longitude": -77.0961947,
    "state": "Maryland",
    "stateAbbr": "MD",
    "tags": {
      "addr:city": "Arlington",
      "addr:housenumber": "1299",
      "addr:postcode": "22201",
      "addr:state": "VA",
      "addr:street": "North Herndon Street",
      "leisure": "dog_park",
      "name": "James Hunter Park",
      "website": "https://parks.arlingtonva.us/locations/james-hunter-dog-park/"
    }
  },
  {
    "id": 213194724,
    "name": "Dog Park",
    "latitude": 39.2671266,
    "longitude": -76.5920713,
    "state": "Maryland",
    "stateAbbr": "MD",
    "tags": {
      "leisure": "dog_park",
      "wheelchair": "yes"
    }
  },
  {
    "id": 220140809,
    "name": "Columbia Heights Dog Park",
    "latitude": 38.9314786,
    "longitude": -77.0284227,
    "state": "Maryland",
    "stateAbbr": "MD",
    "tags": {
      "barrier": "fence",
      "leisure": "dog_park",
      "name": "Columbia Heights Dog Park"
    }
  },
  {
    "id": 221295128,
    "name": "Liberty Dog Park",
    "latitude": 39.2899619,
    "longitude": -76.6178764,
    "state": "Maryland",
    "stateAbbr": "MD",
    "tags": {
      "leisure": "dog_park",
      "name": "Liberty Dog Park"
    }
  },
  {
    "id": 221296493,
    "name": "Patterson Park Dog Park",
    "latitude": 39.2882697,
    "longitude": -76.5762371,
    "state": "Maryland",
    "stateAbbr": "MD",
    "tags": {
      "barrier": "fence",
      "fence_type": "chain_link",
      "height": "2",
      "leisure": "dog_park",
      "name": "Patterson Park Dog Park"
    }
  },
  {
    "id": 225638545,
    "name": "Big Dog Park",
    "latitude": 38.9313363,
    "longitude": -77.2333518,
    "state": "Maryland",
    "stateAbbr": "MD",
    "tags": {
      "leisure": "dog_park",
      "name": "Big Dog Park"
    }
  },
  {
    "id": 226345749,
    "name": "Walter Pierce Park Dog Park",
    "latitude": 38.9238656,
    "longitude": -77.047026,
    "state": "Maryland",
    "stateAbbr": "MD",
    "tags": {
      "leisure": "dog_park",
      "name": "Walter Pierce Park Dog Park"
    }
  },
  {
    "id": 230250918,
    "name": "Hagerstown Dog Park",
    "latitude": 39.6437121,
    "longitude": -77.7106639,
    "state": "Maryland",
    "stateAbbr": "MD",
    "tags": {
      "designation": "Hagerstown Dog Park",
      "ele": "170",
      "gnis:feature_id": "1713810",
      "leisure": "dog_park",
      "name": "Hagerstown Dog Park",
      "source": "City of Hagerstown, MD., GIS Specialist",
      "surface": "grass",
      "website": "https://www.facebook.com/Hagerstown-Dog-Park-415774781877431/",
      "wikidata": "Q49554536"
    }
  },
  {
    "id": 256928845,
    "name": "Olney Manor Dog Park (large dogs)",
    "latitude": 39.1258197,
    "longitude": -77.0690122,
    "state": "Maryland",
    "stateAbbr": "MD",
    "tags": {
      "leisure": "dog_park",
      "name": "Olney Manor Dog Park (large dogs)"
    }
  },
  {
    "id": 264198136,
    "name": "Dog Park",
    "latitude": 38.8750106,
    "longitude": -77.2928728,
    "state": "Maryland",
    "stateAbbr": "MD",
    "tags": {
      "leisure": "dog_park"
    }
  },
  {
    "id": 265946089,
    "name": "Dog Park at King Farm",
    "latitude": 39.1191242,
    "longitude": -77.1777331,
    "state": "Maryland",
    "stateAbbr": "MD",
    "tags": {
      "leisure": "dog_park",
      "name": "Dog Park at King Farm"
    }
  },
  {
    "id": 268464037,
    "name": "Island Dog Park",
    "latitude": 38.9807466,
    "longitude": -76.305561,
    "state": "Maryland",
    "stateAbbr": "MD",
    "tags": {
      "leisure": "dog_park",
      "name": "Island Dog Park",
      "source": "survey"
    }
  },
  {
    "id": 269459990,
    "name": "Perry Paw Dog Park",
    "latitude": 39.3940245,
    "longitude": -76.4487067,
    "state": "Maryland",
    "stateAbbr": "MD",
    "tags": {
      "barrier": "fence",
      "leisure": "dog_park",
      "name": "Perry Paw Dog Park"
    }
  },
  {
    "id": 297114665,
    "name": "Dog Park",
    "latitude": 38.2587314,
    "longitude": -76.4489719,
    "state": "Maryland",
    "stateAbbr": "MD",
    "tags": {
      "leisure": "dog_park"
    }
  },
  {
    "id": 302964165,
    "name": "Dog Park",
    "latitude": 38.9687396,
    "longitude": -77.3685194,
    "state": "Maryland",
    "stateAbbr": "MD",
    "tags": {
      "leisure": "dog_park"
    }
  },
  {
    "id": 312084106,
    "name": "Westgrove Dog Park",
    "latitude": 38.769508,
    "longitude": -77.0589371,
    "state": "Maryland",
    "stateAbbr": "MD",
    "tags": {
      "access": "yes",
      "leisure": "dog_park",
      "name": "Westgrove Dog Park",
      "operator": "Westgrove PACK",
      "website": "https://www.westgrovepack.org/"
    }
  },
  {
    "id": 313026641,
    "name": "Dog Park",
    "latitude": 38.8952489,
    "longitude": -76.9866692,
    "state": "Maryland",
    "stateAbbr": "MD",
    "tags": {
      "barrier": "fence",
      "leisure": "dog_park"
    }
  },
  {
    "id": 314570885,
    "name": "Newark Street Dog Park",
    "latitude": 38.934743,
    "longitude": -77.076657,
    "state": "Maryland",
    "stateAbbr": "MD",
    "tags": {
      "barrier": "fence",
      "leisure": "dog_park",
      "name": "Newark Street Dog Park"
    }
  },
  {
    "id": 337505807,
    "name": "Dog Park",
    "latitude": 39.2812792,
    "longitude": -76.5877197,
    "state": "Maryland",
    "stateAbbr": "MD",
    "tags": {
      "leisure": "dog_park"
    }
  },
  {
    "id": 345951074,
    "name": "Dog Park",
    "latitude": 38.8599171,
    "longitude": -77.1487884,
    "state": "Maryland",
    "stateAbbr": "MD",
    "tags": {
      "leisure": "dog_park"
    }
  },
  {
    "id": 356377661,
    "name": "Grist Mill Dog Park",
    "latitude": 38.7087161,
    "longitude": -77.1123342,
    "state": "Maryland",
    "stateAbbr": "MD",
    "tags": {
      "leisure": "dog_park",
      "name": "Grist Mill Dog Park"
    }
  },
  {
    "id": 362134686,
    "name": "Hooff's Run Dog Park",
    "latitude": 38.8130661,
    "longitude": -77.0617187,
    "state": "Maryland",
    "stateAbbr": "MD",
    "tags": {
      "leisure": "dog_park",
      "lit": "no",
      "name": "Hooff's Run Dog Park"
    }
  },
  {
    "id": 365791523,
    "name": "Dog Park",
    "latitude": 38.9390568,
    "longitude": -76.7430085,
    "state": "Maryland",
    "stateAbbr": "MD",
    "tags": {
      "leisure": "dog_park"
    }
  },
  {
    "id": 367147287,
    "name": "Dog Run",
    "latitude": 38.8732833,
    "longitude": -77.0027267,
    "state": "Maryland",
    "stateAbbr": "MD",
    "tags": {
      "leisure": "dog_park",
      "name": "Dog Run"
    }
  },
  {
    "id": 369290328,
    "name": "Heurich Dog Park",
    "latitude": 38.9623625,
    "longitude": -76.9693272,
    "state": "Maryland",
    "stateAbbr": "MD",
    "tags": {
      "barrier": "fence",
      "leisure": "dog_park",
      "name": "Heurich Dog Park",
      "website": "https://www.hyattsville.org/413/Heurich-Dog-Park"
    }
  },
  {
    "id": 389286558,
    "name": "Dog Park",
    "latitude": 38.8823982,
    "longitude": -77.0849362,
    "state": "Maryland",
    "stateAbbr": "MD",
    "tags": {
      "comment": "sigma_project",
      "leisure": "dog_park"
    }
  },
  {
    "id": 393078110,
    "name": "name=Broadneck Dog Park - Small Dog Area",
    "latitude": 39.0333499,
    "longitude": -76.4494023,
    "state": "Maryland",
    "stateAbbr": "MD",
    "tags": {
      "access": "yes",
      "leisure": "dog_park",
      "name": "name=Broadneck Dog Park - Small Dog Area",
      "opening_hours": "sunrise-sunset",
      "operator": "Anne Arundel Recreation and Parks",
      "operator:type": "government"
    }
  },
  {
    "id": 400686149,
    "name": "Dog Park",
    "latitude": 38.758135,
    "longitude": -77.1713453,
    "state": "Maryland",
    "stateAbbr": "MD",
    "tags": {
      "leisure": "dog_park"
    }
  },
  {
    "id": 404805270,
    "name": "Dog Park",
    "latitude": 38.7593175,
    "longitude": -77.5647344,
    "state": "Maryland",
    "stateAbbr": "MD",
    "tags": {
      "leisure": "dog_park",
      "source": "survey 3/2016"
    }
  },
  {
    "id": 411544171,
    "name": "Dog Park",
    "latitude": 39.1887332,
    "longitude": -77.2908788,
    "state": "Maryland",
    "stateAbbr": "MD",
    "tags": {
      "leisure": "dog_park"
    }
  },
  {
    "id": 422551630,
    "name": "Dog Park",
    "latitude": 39.3801222,
    "longitude": -77.4496985,
    "state": "Maryland",
    "stateAbbr": "MD",
    "tags": {
      "barrier": "fence",
      "leisure": "dog_park"
    }
  },
  {
    "id": 424669102,
    "name": "Bark Social Columbia",
    "latitude": 39.2108695,
    "longitude": -76.8640912,
    "state": "Maryland",
    "stateAbbr": "MD",
    "tags": {
      "addr:city": "Columbia",
      "addr:housenumber": "5801",
      "addr:postcode": "21044",
      "addr:state": "MD",
      "addr:street": "Merriweather Drive",
      "fixme": "rough location",
      "leisure": "dog_park",
      "name": "Bark Social Columbia",
      "website": "https://barksocial.com"
    }
  },
  {
    "id": 435644134,
    "name": "Wags",
    "latitude": 39.2544773,
    "longitude": -76.526936,
    "state": "Maryland",
    "stateAbbr": "MD",
    "tags": {
      "barrier": "fence",
      "fence_type": "chain_link",
      "height": "2",
      "leisure": "dog_park",
      "name": "Wags"
    }
  },
  {
    "id": 435691826,
    "name": "City of Frederick Dog Park",
    "latitude": 39.4147267,
    "longitude": -77.4152863,
    "state": "Maryland",
    "stateAbbr": "MD",
    "tags": {
      "access": "yes",
      "leisure": "dog_park",
      "name": "City of Frederick Dog Park",
      "name:signed": "Dog Park",
      "operator": "City of Frederick",
      "website": "https://www.cityoffrederickmd.gov/258/Dog-Park",
      "wheelchair": "yes"
    }
  },
  {
    "id": 461446296,
    "name": "Vint Hill Dog Park",
    "latitude": 38.7450688,
    "longitude": -77.6844203,
    "state": "Maryland",
    "stateAbbr": "MD",
    "tags": {
      "description": "Park",
      "leisure": "dog_park",
      "name": "Vint Hill Dog Park",
      "note": "Includes Parking areas",
      "website": "https://www.vinthilldogpark.org/"
    }
  },
  {
    "id": 467353873,
    "name": "Bell Branch \"Big\" Dog Park",
    "latitude": 38.9880752,
    "longitude": -76.6773195,
    "state": "Maryland",
    "stateAbbr": "MD",
    "tags": {
      "leisure": "dog_park",
      "name": "Bell Branch \"Big\" Dog Park"
    }
  },
  {
    "id": 468177774,
    "name": "Maryland City Dog Park",
    "latitude": 39.0730989,
    "longitude": -76.82993,
    "state": "Maryland",
    "stateAbbr": "MD",
    "tags": {
      "leisure": "dog_park",
      "name": "Maryland City Dog Park"
    }
  },
  {
    "id": 468480053,
    "name": "Rodgers Forge Dog Park",
    "latitude": 39.380303,
    "longitude": -76.6164263,
    "state": "Maryland",
    "stateAbbr": "MD",
    "tags": {
      "leisure": "dog_park",
      "name": "Rodgers Forge Dog Park"
    }
  },
  {
    "id": 468586698,
    "name": "Dog Park",
    "latitude": 38.8284168,
    "longitude": -77.173238,
    "state": "Maryland",
    "stateAbbr": "MD",
    "tags": {
      "barrier": "fence",
      "leisure": "dog_park"
    }
  },
  {
    "id": 469234676,
    "name": "Dog Park",
    "latitude": 38.9780982,
    "longitude": -76.5036968,
    "state": "Maryland",
    "stateAbbr": "MD",
    "tags": {
      "leisure": "dog_park"
    }
  },
  {
    "id": 479564756,
    "name": "Addison Court Dog Park",
    "latitude": 38.4120949,
    "longitude": -75.559878,
    "state": "Maryland",
    "stateAbbr": "MD",
    "tags": {
      "fixme": "location?",
      "leisure": "dog_park",
      "name": "Addison Court Dog Park",
      "name_1": "Bark Park"
    }
  },
  {
    "id": 481663438,
    "name": "South Run Dog Park",
    "latitude": 38.7529076,
    "longitude": -77.2754058,
    "state": "Maryland",
    "stateAbbr": "MD",
    "tags": {
      "leisure": "dog_park",
      "name": "South Run Dog Park"
    }
  },
  {
    "id": 506078730,
    "name": "Dog Park",
    "latitude": 38.6551978,
    "longitude": -77.2565177,
    "state": "Maryland",
    "stateAbbr": "MD",
    "tags": {
      "leisure": "dog_park",
      "source": "walking survey 7/2017"
    }
  },
  {
    "id": 532234772,
    "name": "Dog Park",
    "latitude": 38.803747,
    "longitude": -77.0784868,
    "state": "Maryland",
    "stateAbbr": "MD",
    "tags": {
      "access": "private",
      "leisure": "dog_park"
    }
  },
  {
    "id": 543896426,
    "name": "Watkins Dog Park",
    "latitude": 39.3791275,
    "longitude": -77.1443431,
    "state": "Maryland",
    "stateAbbr": "MD",
    "tags": {
      "leisure": "dog_park",
      "name": "Watkins Dog Park"
    }
  },
  {
    "id": 544885224,
    "name": "Dog Park",
    "latitude": 39.2148385,
    "longitude": -76.705038,
    "state": "Maryland",
    "stateAbbr": "MD",
    "tags": {
      "barrier": "fence",
      "leisure": "dog_park"
    }
  },
  {
    "id": 545123233,
    "name": "The Harrison Dog Park",
    "latitude": 38.4248711,
    "longitude": -78.8700026,
    "state": "Maryland",
    "stateAbbr": "MD",
    "tags": {
      "leisure": "dog_park",
      "name": "The Harrison Dog Park"
    }
  },
  {
    "id": 545485828,
    "name": "Dog Park",
    "latitude": 38.4539773,
    "longitude": -78.8398592,
    "state": "Maryland",
    "stateAbbr": "MD",
    "tags": {
      "leisure": "dog_park"
    }
  },
  {
    "id": 546389575,
    "name": "Ma & Pa Dog Park",
    "latitude": 39.5297856,
    "longitude": -76.373327,
    "state": "Maryland",
    "stateAbbr": "MD",
    "tags": {
      "addr:city": "Bel Air",
      "addr:housenumber": "703",
      "addr:postcode": "21014",
      "addr:state": "MD",
      "addr:street": "North Tollgate Road",
      "leisure": "dog_park",
      "name": "Ma & Pa Dog Park",
      "note": "area is per HarCoGov site",
      "website": "https://www.harfordcountymd.gov/Facilities/Facility/Details/Ma-Pa-Dog-Park-65"
    }
  },
  {
    "id": 550989116,
    "name": "Bark Park",
    "latitude": 38.4495511,
    "longitude": -77.3875233,
    "state": "Maryland",
    "stateAbbr": "MD",
    "tags": {
      "leisure": "dog_park",
      "name": "Bark Park",
      "source": "EsriWorldImagery"
    }
  },
  {
    "id": 555180282,
    "name": "Dog Park",
    "latitude": 39.0829258,
    "longitude": -76.6855642,
    "state": "Maryland",
    "stateAbbr": "MD",
    "tags": {
      "leisure": "dog_park"
    }
  },
  {
    "id": 556158511,
    "name": "Ellsworth Urban Dog Park",
    "latitude": 39.0005562,
    "longitude": -77.0250516,
    "state": "Maryland",
    "stateAbbr": "MD",
    "tags": {
      "leisure": "dog_park",
      "name": "Ellsworth Urban Dog Park"
    }
  },
  {
    "id": 557799101,
    "name": "Bundy Dog Park",
    "latitude": 38.9094974,
    "longitude": -77.0179722,
    "state": "Maryland",
    "stateAbbr": "MD",
    "tags": {
      "leisure": "dog_park",
      "name": "Bundy Dog Park"
    }
  },
  {
    "id": 559330351,
    "name": "Rock Hill District Dog Park",
    "latitude": 38.8779044,
    "longitude": -77.4739445,
    "state": "Maryland",
    "stateAbbr": "MD",
    "tags": {
      "barrier": "fence",
      "description": "Dog park for dogs over 30 pounds",
      "leisure": "dog_park",
      "name": "Rock Hill District Dog Park",
      "website": "https://www.fairfaxcounty.gov/parks/offleash"
    }
  },
  {
    "id": 559334153,
    "name": "Dog Park",
    "latitude": 38.8399031,
    "longitude": -77.4473457,
    "state": "Maryland",
    "stateAbbr": "MD",
    "tags": {
      "leisure": "dog_park"
    }
  },
  {
    "id": 559334154,
    "name": "Dog Park",
    "latitude": 38.844303,
    "longitude": -77.4364315,
    "state": "Maryland",
    "stateAbbr": "MD",
    "tags": {
      "leisure": "dog_park"
    }
  },
  {
    "id": 562933565,
    "name": "Dog Park",
    "latitude": 38.9976981,
    "longitude": -77.0385639,
    "state": "Maryland",
    "stateAbbr": "MD",
    "tags": {
      "leisure": "dog_park"
    }
  },
  {
    "id": 565086990,
    "name": "Dog Park",
    "latitude": 38.8010743,
    "longitude": -77.1438656,
    "state": "Maryland",
    "stateAbbr": "MD",
    "tags": {
      "leisure": "dog_park",
      "source": "walking survey 2/2018"
    }
  },
  {
    "id": 565133513,
    "name": "Columbia DogPark",
    "latitude": 39.2259236,
    "longitude": -76.8900348,
    "state": "Maryland",
    "stateAbbr": "MD",
    "tags": {
      "addr:city": "Columbia",
      "addr:housenumber": "5901",
      "addr:postcode": "21044",
      "addr:state": "MD",
      "addr:street": "Rivendell Lane",
      "leisure": "dog_park",
      "name": "Columbia DogPark",
      "opening_hours": "Su-Sa 07:00-17:30",
      "phone": "+1-410-312-6330",
      "website": "https://www.columbiaassociation.org/facilities/columbia-dog-park/"
    }
  },
  {
    "id": 569976919,
    "name": "Wiggly Field",
    "latitude": 38.8109137,
    "longitude": -77.1293418,
    "state": "Maryland",
    "stateAbbr": "MD",
    "tags": {
      "leisure": "dog_park",
      "name": "Wiggly Field"
    }
  },
  {
    "id": 573659518,
    "name": "Dog Park",
    "latitude": 38.9239555,
    "longitude": -77.2193661,
    "state": "Maryland",
    "stateAbbr": "MD",
    "tags": {
      "leisure": "dog_park"
    }
  },
  {
    "id": 575736886,
    "name": "Watersedge Dog Walking Park",
    "latitude": 39.2463806,
    "longitude": -76.5033993,
    "state": "Maryland",
    "stateAbbr": "MD",
    "tags": {
      "description": "Dog walking park",
      "leisure": "dog_park",
      "name": "Watersedge Dog Walking Park"
    }
  },
  {
    "id": 578638614,
    "name": "Dog Park",
    "latitude": 38.7811633,
    "longitude": -77.1208393,
    "state": "Maryland",
    "stateAbbr": "MD",
    "tags": {
      "leisure": "dog_park"
    }
  },
  {
    "id": 582301555,
    "name": "Summerfield Dog Park",
    "latitude": 39.4058665,
    "longitude": -77.2952538,
    "state": "Maryland",
    "stateAbbr": "MD",
    "tags": {
      "leisure": "dog_park",
      "name": "Summerfield Dog Park"
    }
  },
  {
    "id": 583334198,
    "name": "Dog Park",
    "latitude": 38.5720026,
    "longitude": -76.9808391,
    "state": "Maryland",
    "stateAbbr": "MD",
    "tags": {
      "leisure": "dog_park"
    }
  },
  {
    "id": 588194756,
    "name": "Large Dog Off-leash Area",
    "latitude": 38.9078648,
    "longitude": -78.2107365,
    "state": "Maryland",
    "stateAbbr": "MD",
    "tags": {
      "barrier": "fence",
      "leisure": "dog_park",
      "name": "Large Dog Off-leash Area"
    }
  },
  {
    "id": 593527605,
    "name": "Play Ball Dog Park",
    "latitude": 38.6818804,
    "longitude": -76.1685394,
    "state": "Maryland",
    "stateAbbr": "MD",
    "tags": {
      "leisure": "dog_park",
      "name": "Play Ball Dog Park"
    }
  },
  {
    "id": 602106935,
    "name": "Dog Park",
    "latitude": 38.2201175,
    "longitude": -77.4895985,
    "state": "Maryland",
    "stateAbbr": "MD",
    "tags": {
      "leisure": "dog_park"
    }
  },
  {
    "id": 607743130,
    "name": "Dog Park",
    "latitude": 38.9916189,
    "longitude": -77.0342309,
    "state": "Maryland",
    "stateAbbr": "MD",
    "tags": {
      "access": "private",
      "leisure": "dog_park",
      "operator:type": "private"
    }
  },
  {
    "id": 612741162,
    "name": "Dog Park",
    "latitude": 39.4583407,
    "longitude": -76.3159304,
    "state": "Maryland",
    "stateAbbr": "MD",
    "tags": {
      "barrier": "fence",
      "leisure": "dog_park"
    }
  },
  {
    "id": 621847365,
    "name": "Dog Park",
    "latitude": 38.9630138,
    "longitude": -77.4472215,
    "state": "Maryland",
    "stateAbbr": "MD",
    "tags": {
      "barrier": "fence",
      "leisure": "dog_park"
    }
  },
  {
    "id": 624540592,
    "name": "Dog Park",
    "latitude": 39.2884092,
    "longitude": -76.6119045,
    "state": "Maryland",
    "stateAbbr": "MD",
    "tags": {
      "addr:city": "Baltimore",
      "addr:country": "US",
      "addr:housenumber": "25",
      "addr:postcode": "21202",
      "addr:state": "MD",
      "addr:street": "South Calvert Street",
      "barrier": "yes",
      "leisure": "dog_park"
    }
  },
  {
    "id": 625181189,
    "name": "Dog Park",
    "latitude": 39.4285872,
    "longitude": -76.3287412,
    "state": "Maryland",
    "stateAbbr": "MD",
    "tags": {
      "leisure": "dog_park"
    }
  },
  {
    "id": 628169139,
    "name": "Dog Park",
    "latitude": 39.0270555,
    "longitude": -77.4155705,
    "state": "Maryland",
    "stateAbbr": "MD",
    "tags": {
      "leisure": "dog_park"
    }
  },
  {
    "id": 641019944,
    "name": "Dog Park",
    "latitude": 39.4407223,
    "longitude": -76.8308798,
    "state": "Maryland",
    "stateAbbr": "MD",
    "tags": {
      "barrier": "fence",
      "leisure": "dog_park"
    }
  },
  {
    "id": 644589284,
    "name": "South Riding Dog Park",
    "latitude": 38.9210058,
    "longitude": -77.5096587,
    "state": "Maryland",
    "stateAbbr": "MD",
    "tags": {
      "barrier": "fence",
      "leisure": "dog_park",
      "name": "South Riding Dog Park"
    }
  },
  {
    "id": 647551916,
    "name": "Chestertown Dog Park",
    "latitude": 39.222421,
    "longitude": -76.0597564,
    "state": "Maryland",
    "stateAbbr": "MD",
    "tags": {
      "access": "yes",
      "addr:city": "Chestertown",
      "addr:housenumber": "100",
      "addr:postcode": "21620",
      "addr:state": "MD",
      "addr:street": "Schauber Road",
      "dog": "leashed",
      "leisure": "dog_park",
      "name": "Chestertown Dog Park",
      "phone": "+1-410-778-0500",
      "website": "https://townofchestertown.com/residents/parks-and-trails/dog-park/"
    }
  },
  {
    "id": 671144343,
    "name": "Senior Dog Park",
    "latitude": 39.2965823,
    "longitude": -76.6207826,
    "state": "Maryland",
    "stateAbbr": "MD",
    "tags": {
      "barrier": "fence",
      "leisure": "dog_park",
      "name": "Senior Dog Park"
    }
  },
  {
    "id": 673167225,
    "name": "Bark Park",
    "latitude": 39.2209912,
    "longitude": -76.8051069,
    "state": "Maryland",
    "stateAbbr": "MD",
    "tags": {
      "access": "private",
      "leisure": "dog_park",
      "name": "Bark Park"
    }
  },
  {
    "id": 674148177,
    "name": "Abingdon Road Dog Park",
    "latitude": 39.4701319,
    "longitude": -76.2850753,
    "state": "Maryland",
    "stateAbbr": "MD",
    "tags": {
      "leisure": "dog_park",
      "name": "Abingdon Road Dog Park"
    }
  },
  {
    "id": 675878928,
    "name": "Dog Park",
    "latitude": 38.9557896,
    "longitude": -77.4200867,
    "state": "Maryland",
    "stateAbbr": "MD",
    "tags": {
      "barrier": "fence",
      "leisure": "dog_park"
    }
  },
  {
    "id": 678027572,
    "name": "Dog Park",
    "latitude": 39.0621208,
    "longitude": -77.1181748,
    "state": "Maryland",
    "stateAbbr": "MD",
    "tags": {
      "leisure": "dog_park"
    }
  },
  {
    "id": 681140176,
    "name": "Dog Park",
    "latitude": 38.8722357,
    "longitude": -77.1106083,
    "state": "Maryland",
    "stateAbbr": "MD",
    "tags": {
      "leisure": "dog_park",
      "opening_hours": "24/7",
      "wheelchair": "yes"
    }
  },
  {
    "id": 682018127,
    "name": "Dog Park",
    "latitude": 39.1729493,
    "longitude": -76.5689121,
    "state": "Maryland",
    "stateAbbr": "MD",
    "tags": {
      "barrier": "fence",
      "leisure": "dog_park"
    }
  },
  {
    "id": 685020761,
    "name": "Urban Green Bark Park",
    "latitude": 39.3243344,
    "longitude": -77.3451476,
    "state": "Maryland",
    "stateAbbr": "MD",
    "tags": {
      "leisure": "dog_park",
      "name": "Urban Green Bark Park"
    }
  },
  {
    "id": 690087834,
    "name": "Dog Park",
    "latitude": 39.5150199,
    "longitude": -76.375883,
    "state": "Maryland",
    "stateAbbr": "MD",
    "tags": {
      "access": "community",
      "leisure": "dog_park"
    }
  },
  {
    "id": 691246323,
    "name": "Charlesmont",
    "latitude": 39.2750648,
    "longitude": -76.4887261,
    "state": "Maryland",
    "stateAbbr": "MD",
    "tags": {
      "leisure": "dog_park",
      "name": "Charlesmont"
    }
  },
  {
    "id": 691454465,
    "name": "Towers Dog Park",
    "latitude": 38.8672408,
    "longitude": -77.0770296,
    "state": "Maryland",
    "stateAbbr": "MD",
    "tags": {
      "leisure": "dog_park",
      "name": "Towers Dog Park"
    }
  },
  {
    "id": 695265351,
    "name": "Liberty Parkway Dog Park",
    "latitude": 39.2536971,
    "longitude": -76.5153154,
    "state": "Maryland",
    "stateAbbr": "MD",
    "tags": {
      "leisure": "dog_park",
      "name": "Liberty Parkway Dog Park"
    }
  },
  {
    "id": 695870763,
    "name": "Dog Park",
    "latitude": 38.3043341,
    "longitude": -76.5245145,
    "state": "Maryland",
    "stateAbbr": "MD",
    "tags": {
      "leisure": "dog_park"
    }
  },
  {
    "id": 696037424,
    "name": "Dog Park",
    "latitude": 38.9978069,
    "longitude": -76.9346695,
    "state": "Maryland",
    "stateAbbr": "MD",
    "tags": {
      "barrier": "fence",
      "fence_type": "chain_link",
      "leisure": "dog_park"
    }
  },
  {
    "id": 696437402,
    "name": "Watersedge Community Dog Park",
    "latitude": 39.247376,
    "longitude": -76.4995132,
    "state": "Maryland",
    "stateAbbr": "MD",
    "tags": {
      "leisure": "dog_park",
      "name": "Watersedge Community Dog Park"
    }
  },
  {
    "id": 696437407,
    "name": "Dog Park",
    "latitude": 39.244618,
    "longitude": -76.5098733,
    "state": "Maryland",
    "stateAbbr": "MD",
    "tags": {
      "leisure": "dog_park"
    }
  },
  {
    "id": 696437408,
    "name": "Dog Park",
    "latitude": 39.244989,
    "longitude": -76.5128217,
    "state": "Maryland",
    "stateAbbr": "MD",
    "tags": {
      "leisure": "dog_park"
    }
  },
  {
    "id": 696451531,
    "name": "Dog Park",
    "latitude": 39.2531121,
    "longitude": -76.5204753,
    "state": "Maryland",
    "stateAbbr": "MD",
    "tags": {
      "leisure": "dog_park"
    }
  },
  {
    "id": 696730809,
    "name": "Dog Park",
    "latitude": 39.2812187,
    "longitude": -76.4925988,
    "state": "Maryland",
    "stateAbbr": "MD",
    "tags": {
      "leisure": "dog_park"
    }
  },
  {
    "id": 697179792,
    "name": "Waggertail Dog Park",
    "latitude": 38.965965,
    "longitude": -76.9253242,
    "state": "Maryland",
    "stateAbbr": "MD",
    "tags": {
      "barrier": "fence",
      "fence_type": "chain_link",
      "leisure": "dog_park",
      "name": "Waggertail Dog Park"
    }
  },
  {
    "id": 697508426,
    "name": "Dog Park",
    "latitude": 38.9554767,
    "longitude": -76.9384364,
    "state": "Maryland",
    "stateAbbr": "MD",
    "tags": {
      "access": "private",
      "barrier": "fence",
      "fence_type": "chain_link",
      "leisure": "dog_park"
    }
  },
  {
    "id": 698068494,
    "name": "Yoprkway Dog Park",
    "latitude": 39.2624756,
    "longitude": -76.5175538,
    "state": "Maryland",
    "stateAbbr": "MD",
    "tags": {
      "leisure": "dog_park",
      "name": "Yoprkway Dog Park"
    }
  },
  {
    "id": 698092515,
    "name": "Dog Park",
    "latitude": 39.2789194,
    "longitude": -76.4834303,
    "state": "Maryland",
    "stateAbbr": "MD",
    "tags": {
      "leisure": "dog_park"
    }
  },
  {
    "id": 698721460,
    "name": "Dog Park",
    "latitude": 39.2831137,
    "longitude": -76.529611,
    "state": "Maryland",
    "stateAbbr": "MD",
    "tags": {
      "leisure": "dog_park"
    }
  },
  {
    "id": 698721466,
    "name": "Dog Park",
    "latitude": 39.276983,
    "longitude": -76.5287635,
    "state": "Maryland",
    "stateAbbr": "MD",
    "tags": {
      "leisure": "dog_park"
    }
  },
  {
    "id": 699263605,
    "name": "Dog Park",
    "latitude": 39.0819276,
    "longitude": -76.682672,
    "state": "Maryland",
    "stateAbbr": "MD",
    "tags": {
      "leisure": "dog_park"
    }
  },
  {
    "id": 699269179,
    "name": "Towsers Branch Park Small Dog Park",
    "latitude": 39.0336977,
    "longitude": -76.697232,
    "state": "Maryland",
    "stateAbbr": "MD",
    "tags": {
      "leisure": "dog_park",
      "name": "Towsers Branch Park Small Dog Park"
    }
  },
  {
    "id": 700378703,
    "name": "Harborview Tower Dog Park",
    "latitude": 39.277419,
    "longitude": -76.6040112,
    "state": "Maryland",
    "stateAbbr": "MD",
    "tags": {
      "access": "private",
      "leisure": "dog_park",
      "name": "Harborview Tower Dog Park"
    }
  },
  {
    "id": 700745858,
    "name": "The Point at Silver Spring Dog Park",
    "latitude": 38.9976621,
    "longitude": -77.0318058,
    "state": "Maryland",
    "stateAbbr": "MD",
    "tags": {
      "leisure": "dog_park",
      "name": "The Point at Silver Spring Dog Park"
    }
  },
  {
    "id": 703996318,
    "name": "K-9 Cody Dog Park",
    "latitude": 39.5628807,
    "longitude": -76.1030846,
    "state": "Maryland",
    "stateAbbr": "MD",
    "tags": {
      "facebook": "https://www.facebook.com/K-9-Cody-Dog-Park-1083456478370457/",
      "leisure": "dog_park",
      "name": "K-9 Cody Dog Park",
      "operator": "City of Havre de Grace",
      "phone": "+1-443-228-0527",
      "website": "https://www.explorehavredegrace.com/venue/k-9-cody-dog-park/"
    }
  },
  {
    "id": 723890190,
    "name": "Strasburg Dog Park",
    "latitude": 38.976202,
    "longitude": -78.3502463,
    "state": "Maryland",
    "stateAbbr": "MD",
    "tags": {
      "leisure": "dog_park",
      "name": "Strasburg Dog Park"
    }
  },
  {
    "id": 725205554,
    "name": "Dog Park",
    "latitude": 39.5001326,
    "longitude": -76.3328584,
    "state": "Maryland",
    "stateAbbr": "MD",
    "tags": {
      "access": "community",
      "leisure": "dog_park"
    }
  },
  {
    "id": 727817542,
    "name": "Dog Park",
    "latitude": 38.8376523,
    "longitude": -77.1116049,
    "state": "Maryland",
    "stateAbbr": "MD",
    "tags": {
      "access": "private",
      "leisure": "dog_park"
    }
  },
  {
    "id": 742710245,
    "name": "Dog Park",
    "latitude": 38.0730856,
    "longitude": -78.4556793,
    "state": "Maryland",
    "stateAbbr": "MD",
    "tags": {
      "leisure": "dog_park"
    }
  },
  {
    "id": 744204585,
    "name": "Dog Park",
    "latitude": 38.3838303,
    "longitude": -75.3101545,
    "state": "Maryland",
    "stateAbbr": "MD",
    "tags": {
      "leisure": "dog_park"
    }
  },
  {
    "id": 744536143,
    "name": "Dog Park",
    "latitude": 38.3027474,
    "longitude": -75.1188783,
    "state": "Maryland",
    "stateAbbr": "MD",
    "tags": {
      "leisure": "dog_park"
    }
  },
  {
    "id": 747185816,
    "name": "Dog Park",
    "latitude": 39.3525604,
    "longitude": -77.5941835,
    "state": "Maryland",
    "stateAbbr": "MD",
    "tags": {
      "leisure": "dog_park"
    }
  },
  {
    "id": 747379167,
    "name": "Lansdowne Dog Park (new)",
    "latitude": 39.0799682,
    "longitude": -77.4967563,
    "state": "Maryland",
    "stateAbbr": "MD",
    "tags": {
      "barrier": "fence",
      "leisure": "dog_park",
      "name": "Lansdowne Dog Park (new)"
    }
  },
  {
    "id": 747805480,
    "name": "Gypsy Hill Dog Park",
    "latitude": 38.1589149,
    "longitude": -79.0825605,
    "state": "Maryland",
    "stateAbbr": "MD",
    "tags": {
      "access": "yes",
      "dog": "yes",
      "leisure": "dog_park",
      "name": "Gypsy Hill Dog Park",
      "operator": "City of Staunton",
      "operator:type": "government",
      "waste": "dog_excrement",
      "website": "https://www.ci.staunton.va.us/departments/parks-recreation-/parks-/gypsy-hill-park/dog-park"
    }
  },
  {
    "id": 748872457,
    "name": "Dog Park",
    "latitude": 38.9109056,
    "longitude": -77.002665,
    "state": "Maryland",
    "stateAbbr": "MD",
    "tags": {
      "access": "private",
      "leisure": "dog_park",
      "operator": "Gale Eckington"
    }
  },
  {
    "id": 750318899,
    "name": "Dog Park",
    "latitude": 38.0392639,
    "longitude": -78.7405763,
    "state": "Maryland",
    "stateAbbr": "MD",
    "tags": {
      "leisure": "dog_park"
    }
  },
  {
    "id": 768300802,
    "name": "Kensington Dog Run",
    "latitude": 39.0266281,
    "longitude": -77.0707048,
    "state": "Maryland",
    "stateAbbr": "MD",
    "tags": {
      "access": "yes",
      "leisure": "dog_park",
      "name": "Kensington Dog Run",
      "operator": "Town of Kensington",
      "operator:type": "government",
      "wheelchair": "yes"
    }
  },
  {
    "id": 775595586,
    "name": "Dog Park",
    "latitude": 38.9694592,
    "longitude": -77.3597874,
    "state": "Maryland",
    "stateAbbr": "MD",
    "tags": {
      "access": "private",
      "leisure": "dog_park",
      "operator": "Kettler Inc.",
      "operator:type": "private",
      "wheelchair": "yes"
    }
  },
  {
    "id": 775816689,
    "name": "Metro Crossing Dog Park",
    "latitude": 39.40604,
    "longitude": -76.7825825,
    "state": "Maryland",
    "stateAbbr": "MD",
    "tags": {
      "leisure": "dog_park",
      "name": "Metro Crossing Dog Park"
    }
  },
  {
    "id": 781644261,
    "name": "Quebec House Dog Park",
    "latitude": 38.9375073,
    "longitude": -77.057517,
    "state": "Maryland",
    "stateAbbr": "MD",
    "tags": {
      "leisure": "dog_park",
      "name": "Quebec House Dog Park"
    }
  },
  {
    "id": 781974620,
    "name": "Dog Park",
    "latitude": 38.9153533,
    "longitude": -77.2150602,
    "state": "Maryland",
    "stateAbbr": "MD",
    "tags": {
      "leisure": "dog_park",
      "wheelchair": "no"
    }
  },
  {
    "id": 791075151,
    "name": "Eckington Dog Park",
    "latitude": 38.9123362,
    "longitude": -77.0008155,
    "state": "Maryland",
    "stateAbbr": "MD",
    "tags": {
      "leisure": "dog_park",
      "name": "Eckington Dog Park"
    }
  },
  {
    "id": 795751716,
    "name": "Dog Park",
    "latitude": 39.3410413,
    "longitude": -76.4076646,
    "state": "Maryland",
    "stateAbbr": "MD",
    "tags": {
      "barrier": "fence",
      "leisure": "dog_park"
    }
  },
  {
    "id": 800030107,
    "name": "Dog Park",
    "latitude": 39.0129928,
    "longitude": -77.499981,
    "state": "Maryland",
    "stateAbbr": "MD",
    "tags": {
      "barrier": "fence",
      "leisure": "dog_park"
    }
  },
  {
    "id": 800596060,
    "name": "Fort Meade Dog Park",
    "latitude": 39.1170188,
    "longitude": -76.7332165,
    "state": "Maryland",
    "stateAbbr": "MD",
    "tags": {
      "leisure": "dog_park",
      "name": "Fort Meade Dog Park"
    }
  },
  {
    "id": 806931388,
    "name": "Dog Park",
    "latitude": 39.0629473,
    "longitude": -77.4796852,
    "state": "Maryland",
    "stateAbbr": "MD",
    "tags": {
      "barrier": "fence",
      "leisure": "dog_park"
    }
  },
  {
    "id": 813606403,
    "name": "Dog Park",
    "latitude": 39.3915216,
    "longitude": -76.4752453,
    "state": "Maryland",
    "stateAbbr": "MD",
    "tags": {
      "leisure": "dog_park"
    }
  },
  {
    "id": 819460727,
    "name": "Dog Park",
    "latitude": 39.3299996,
    "longitude": -76.6153862,
    "state": "Maryland",
    "stateAbbr": "MD",
    "tags": {
      "access": "private",
      "leisure": "dog_park",
      "opening_hours": "sunrise-sunset",
      "operator": "The Marylander"
    }
  },
  {
    "id": 826563338,
    "name": "Dog Park",
    "latitude": 39.2779357,
    "longitude": -76.5773585,
    "state": "Maryland",
    "stateAbbr": "MD",
    "tags": {
      "access": "yes",
      "leisure": "dog_park"
    }
  },
  {
    "id": 828950470,
    "name": "Dog Park",
    "latitude": 38.5367941,
    "longitude": -77.3431039,
    "state": "Maryland",
    "stateAbbr": "MD",
    "tags": {
      "leisure": "dog_park"
    }
  },
  {
    "id": 832680391,
    "name": "Lenah Mill Dog Park",
    "latitude": 38.9404098,
    "longitude": -77.5703799,
    "state": "Maryland",
    "stateAbbr": "MD",
    "tags": {
      "leisure": "dog_park",
      "name": "Lenah Mill Dog Park"
    }
  },
  {
    "id": 850013930,
    "name": "Dog Park",
    "latitude": 39.3571982,
    "longitude": -76.4029871,
    "state": "Maryland",
    "stateAbbr": "MD",
    "tags": {
      "leisure": "dog_park",
      "wheelchair": "yes"
    }
  },
  {
    "id": 859500155,
    "name": "Dog Park",
    "latitude": 39.3291502,
    "longitude": -77.6298143,
    "state": "Maryland",
    "stateAbbr": "MD",
    "tags": {
      "leisure": "dog_park"
    }
  },
  {
    "id": 860140156,
    "name": "Dog Park",
    "latitude": 38.4027667,
    "longitude": -78.8357228,
    "state": "Maryland",
    "stateAbbr": "MD",
    "tags": {
      "leisure": "dog_park",
      "wheelchair": "no"
    }
  },
  {
    "id": 863388116,
    "name": "Dog Park",
    "latitude": 39.1811363,
    "longitude": -76.7720816,
    "state": "Maryland",
    "stateAbbr": "MD",
    "tags": {
      "leisure": "dog_park"
    }
  },
  {
    "id": 865375680,
    "name": "Dog Park",
    "latitude": 39.3784004,
    "longitude": -76.6609706,
    "state": "Maryland",
    "stateAbbr": "MD",
    "tags": {
      "barrier": "fence",
      "leisure": "dog_park"
    }
  },
  {
    "id": 869336266,
    "name": "Dog Park",
    "latitude": 38.0105487,
    "longitude": -78.5136669,
    "state": "Maryland",
    "stateAbbr": "MD",
    "tags": {
      "leisure": "dog_park",
      "wheelchair": "yes"
    }
  },
  {
    "id": 870420117,
    "name": "Dog Park",
    "latitude": 39.0406764,
    "longitude": -78.1596353,
    "state": "Maryland",
    "stateAbbr": "MD",
    "tags": {
      "access": "private",
      "leisure": "dog_park"
    }
  },
  {
    "id": 873095034,
    "name": "Utah Dog Park",
    "latitude": 38.8379997,
    "longitude": -77.0859047,
    "state": "Maryland",
    "stateAbbr": "MD",
    "tags": {
      "addr:city": "Arlington",
      "addr:housenumber": "3191",
      "addr:postcode": "22206",
      "addr:state": "VA",
      "addr:street": "South Utah Street",
      "leisure": "dog_park",
      "name": "Utah Dog Park",
      "website": "https://parks.arlingtonva.us/locations/utah-dog-park/"
    }
  },
  {
    "id": 879076902,
    "name": "Upshur Dog Park",
    "latitude": 38.9448098,
    "longitude": -77.0314125,
    "state": "Maryland",
    "stateAbbr": "MD",
    "tags": {
      "access": "yes",
      "leisure": "dog_park",
      "name": "Upshur Dog Park"
    }
  },
  {
    "id": 881171944,
    "name": "Dog Park",
    "latitude": 38.7868387,
    "longitude": -77.6031636,
    "state": "Maryland",
    "stateAbbr": "MD",
    "tags": {
      "leisure": "dog_park"
    }
  },
  {
    "id": 881787053,
    "name": "Dog Park",
    "latitude": 39.4871574,
    "longitude": -76.2420097,
    "state": "Maryland",
    "stateAbbr": "MD",
    "tags": {
      "access": "community",
      "barrier": "fence",
      "leisure": "dog_park"
    }
  },
  {
    "id": 897243386,
    "name": "Dog Park",
    "latitude": 39.2110156,
    "longitude": -77.2466237,
    "state": "Maryland",
    "stateAbbr": "MD",
    "tags": {
      "leisure": "dog_park"
    }
  },
  {
    "id": 898075233,
    "name": "Maple Lawn Dog Park",
    "latitude": 39.1580745,
    "longitude": -76.9118309,
    "state": "Maryland",
    "stateAbbr": "MD",
    "tags": {
      "access": "yes",
      "leisure": "dog_park",
      "name": "Maple Lawn Dog Park"
    }
  },
  {
    "id": 899946481,
    "name": "Dog Park",
    "latitude": 38.2820292,
    "longitude": -77.5565684,
    "state": "Maryland",
    "stateAbbr": "MD",
    "tags": {
      "access": "private",
      "leisure": "dog_park"
    }
  },
  {
    "id": 909472421,
    "name": "Bark Park",
    "latitude": 39.4777476,
    "longitude": -76.2408715,
    "state": "Maryland",
    "stateAbbr": "MD",
    "tags": {
      "access": "community",
      "leisure": "dog_park",
      "name": "Bark Park"
    }
  },
  {
    "id": 910656653,
    "name": "Dog Park",
    "latitude": 38.8705604,
    "longitude": -77.0078669,
    "state": "Maryland",
    "stateAbbr": "MD",
    "tags": {
      "leisure": "dog_park"
    }
  },
  {
    "id": 926330167,
    "name": "Dog Park",
    "latitude": 38.9358912,
    "longitude": -77.0535498,
    "state": "Maryland",
    "stateAbbr": "MD",
    "tags": {
      "access": "private",
      "barrier": "fence",
      "leisure": "dog_park"
    }
  },
  {
    "id": 929915691,
    "name": "Frostburg Dog Park",
    "latitude": 39.6434511,
    "longitude": -78.9264188,
    "state": "Maryland",
    "stateAbbr": "MD",
    "tags": {
      "access": "yes",
      "addr:city": "Frostburg",
      "addr:postcode": "21532",
      "addr:state": "MD",
      "addr:street": "Willow Drive",
      "dog": "yes",
      "leisure": "dog_park",
      "name": "Frostburg Dog Park",
      "operator": "The city of Frostburg"
    }
  },
  {
    "id": 933043488,
    "name": "Dog Park",
    "latitude": 38.7348549,
    "longitude": -77.4750453,
    "state": "Maryland",
    "stateAbbr": "MD",
    "tags": {
      "leisure": "dog_park"
    }
  },
  {
    "id": 934094185,
    "name": "Dog Park",
    "latitude": 38.668923,
    "longitude": -77.2878458,
    "state": "Maryland",
    "stateAbbr": "MD",
    "tags": {
      "leisure": "dog_park"
    }
  },
  {
    "id": 934096401,
    "name": "Dog Park",
    "latitude": 38.6827665,
    "longitude": -77.1540691,
    "state": "Maryland",
    "stateAbbr": "MD",
    "tags": {
      "barrier": "fence",
      "leisure": "dog_park"
    }
  },
  {
    "id": 934750676,
    "name": "Dog Park",
    "latitude": 38.8774857,
    "longitude": -76.9920284,
    "state": "Maryland",
    "stateAbbr": "MD",
    "tags": {
      "barrier": "fence",
      "leisure": "dog_park"
    }
  },
  {
    "id": 935168972,
    "name": "Dog Park",
    "latitude": 39.6078152,
    "longitude": -75.8183763,
    "state": "Maryland",
    "stateAbbr": "MD",
    "tags": {
      "leisure": "dog_park"
    }
  },
  {
    "id": 935169284,
    "name": "Dog Park",
    "latitude": 39.6074705,
    "longitude": -75.8189428,
    "state": "Maryland",
    "stateAbbr": "MD",
    "tags": {
      "leisure": "dog_park"
    }
  },
  {
    "id": 935567536,
    "name": "Montgomery Park Dog Park",
    "latitude": 38.8143932,
    "longitude": -77.0406583,
    "state": "Maryland",
    "stateAbbr": "MD",
    "tags": {
      "barrier": "fence",
      "leisure": "dog_park",
      "lit": "no",
      "name": "Montgomery Park Dog Park"
    }
  },
  {
    "id": 944026530,
    "name": "Bruce Monroe Community Park Dog Run",
    "latitude": 38.928399,
    "longitude": -77.0244444,
    "state": "Maryland",
    "stateAbbr": "MD",
    "tags": {
      "barrier": "fence",
      "leisure": "dog_park",
      "lit": "no",
      "name": "Bruce Monroe Community Park Dog Run"
    }
  },
  {
    "id": 945637308,
    "name": "Dog Park",
    "latitude": 39.0470861,
    "longitude": -77.0888743,
    "state": "Maryland",
    "stateAbbr": "MD",
    "tags": {
      "access": "yes",
      "description": "For large dogs",
      "dog": "yes",
      "leisure": "dog_park",
      "wheelchair": "yes"
    }
  },
  {
    "id": 952506077,
    "name": "Dog Park",
    "latitude": 38.7625776,
    "longitude": -77.1384668,
    "state": "Maryland",
    "stateAbbr": "MD",
    "tags": {
      "leisure": "dog_park"
    }
  },
  {
    "id": 952798207,
    "name": "Dog Park",
    "latitude": 38.7624696,
    "longitude": -77.1398631,
    "state": "Maryland",
    "stateAbbr": "MD",
    "tags": {
      "leisure": "dog_park"
    }
  },
  {
    "id": 952807660,
    "name": "Dog Park",
    "latitude": 38.7618525,
    "longitude": -77.1489496,
    "state": "Maryland",
    "stateAbbr": "MD",
    "tags": {
      "leisure": "dog_park"
    }
  },
  {
    "id": 953224462,
    "name": "Dog Park",
    "latitude": 38.7991041,
    "longitude": -77.6266984,
    "state": "Maryland",
    "stateAbbr": "MD",
    "tags": {
      "barrier": "fence",
      "fence_type": "chain_link",
      "leisure": "dog_park"
    }
  },
  {
    "id": 954382482,
    "name": "Dog Park",
    "latitude": 38.8130298,
    "longitude": -77.6635438,
    "state": "Maryland",
    "stateAbbr": "MD",
    "tags": {
      "area": "yes",
      "leisure": "dog_park"
    }
  },
  {
    "id": 958011714,
    "name": "Dog Park",
    "latitude": 39.3835268,
    "longitude": -76.5815293,
    "state": "Maryland",
    "stateAbbr": "MD",
    "tags": {
      "leisure": "dog_park"
    }
  },
  {
    "id": 964096064,
    "name": "The Point Bark Park",
    "latitude": 38.862763,
    "longitude": -77.0527027,
    "state": "Maryland",
    "stateAbbr": "MD",
    "tags": {
      "access": "private",
      "leisure": "dog_park",
      "name": "The Point Bark Park"
    }
  },
  {
    "id": 964441431,
    "name": "Dog Park",
    "latitude": 38.7939073,
    "longitude": -77.1383614,
    "state": "Maryland",
    "stateAbbr": "MD",
    "tags": {
      "leisure": "dog_park"
    }
  },
  {
    "id": 965282656,
    "name": "Dog Park",
    "latitude": 39.1223594,
    "longitude": -76.6096157,
    "state": "Maryland",
    "stateAbbr": "MD",
    "tags": {
      "access": "private",
      "leisure": "dog_park"
    }
  },
  {
    "id": 974782157,
    "name": "Downtown Salisbury Bark Park",
    "latitude": 38.3651328,
    "longitude": -75.6047703,
    "state": "Maryland",
    "stateAbbr": "MD",
    "tags": {
      "access": "yes",
      "leisure": "dog_park",
      "name": "Downtown Salisbury Bark Park",
      "operator": "City of Salisbury",
      "operator:type": "government"
    }
  },
  {
    "id": 978749782,
    "name": "Dog Park",
    "latitude": 39.0359217,
    "longitude": -77.415264,
    "state": "Maryland",
    "stateAbbr": "MD",
    "tags": {
      "access": "private",
      "leisure": "dog_park"
    }
  },
  {
    "id": 978884397,
    "name": "Dog Park",
    "latitude": 38.6707244,
    "longitude": -78.3905615,
    "state": "Maryland",
    "stateAbbr": "MD",
    "tags": {
      "leisure": "dog_park"
    }
  },
  {
    "id": 981035687,
    "name": "Creighton West Dog Park",
    "latitude": 38.9803072,
    "longitude": -77.5478145,
    "state": "Maryland",
    "stateAbbr": "MD",
    "tags": {
      "access": "residents",
      "barrier": "fence",
      "leisure": "dog_park",
      "name": "Creighton West Dog Park"
    }
  },
  {
    "id": 983692888,
    "name": "Fort Barnard Dog Park",
    "latitude": 38.8502816,
    "longitude": -77.0929484,
    "state": "Maryland",
    "stateAbbr": "MD",
    "tags": {
      "access": "yes",
      "addr:city": "Arlington",
      "addr:housenumber": "2101",
      "addr:postcode": "22204",
      "addr:state": "VA",
      "addr:street": "South Pollard Street",
      "leisure": "dog_park",
      "name": "Fort Barnard Dog Park",
      "operator": "Arlington County Department of Parks and Recreation",
      "operator:type": "government",
      "website": "https://www.arlingtonva.us/Government/Departments/Parks-Recreation/Locations/Parks/Fort-Barnard-Park/Fort-Barnard-Dog-Park"
    }
  },
  {
    "id": 983754366,
    "name": "Dog Park",
    "latitude": 39.387889,
    "longitude": -76.571613,
    "state": "Maryland",
    "stateAbbr": "MD",
    "tags": {
      "leisure": "dog_park"
    }
  },
  {
    "id": 984379201,
    "name": "Dog Park",
    "latitude": 39.0427615,
    "longitude": -77.4575283,
    "state": "Maryland",
    "stateAbbr": "MD",
    "tags": {
      "barrier": "fence",
      "leisure": "dog_park"
    }
  },
  {
    "id": 985631001,
    "name": "Dog Park",
    "latitude": 39.0338033,
    "longitude": -77.1486425,
    "state": "Maryland",
    "stateAbbr": "MD",
    "tags": {
      "barrier": "fence",
      "leisure": "dog_park"
    }
  },
  {
    "id": 991237547,
    "name": "Dog Park",
    "latitude": 39.0882209,
    "longitude": -77.524318,
    "state": "Maryland",
    "stateAbbr": "MD",
    "tags": {
      "barrier": "fence",
      "leisure": "dog_park"
    }
  },
  {
    "id": 993503871,
    "name": "Takoma Park Dog Park",
    "latitude": 38.9849418,
    "longitude": -77.0113279,
    "state": "Maryland",
    "stateAbbr": "MD",
    "tags": {
      "barrier": "fence",
      "leisure": "dog_park",
      "name": "Takoma Park Dog Park"
    }
  },
  {
    "id": 995111085,
    "name": "Dog Park",
    "latitude": 38.4251449,
    "longitude": -78.8756351,
    "state": "Maryland",
    "stateAbbr": "MD",
    "tags": {
      "leisure": "dog_park"
    }
  },
  {
    "id": 996155725,
    "name": "Dog Park",
    "latitude": 38.8588515,
    "longitude": -77.3514793,
    "state": "Maryland",
    "stateAbbr": "MD",
    "tags": {
      "leisure": "dog_park"
    }
  },
  {
    "id": 1002460516,
    "name": "Dog Park",
    "latitude": 39.2836978,
    "longitude": -76.8641397,
    "state": "Maryland",
    "stateAbbr": "MD",
    "tags": {
      "access": "private",
      "leisure": "dog_park"
    }
  },
  {
    "id": 1004448515,
    "name": "Dog Park",
    "latitude": 38.8684344,
    "longitude": -77.0958117,
    "state": "Maryland",
    "stateAbbr": "MD",
    "tags": {
      "access": "private",
      "leisure": "dog_park"
    }
  },
  {
    "id": 1005048788,
    "name": "Takoma Dog Park",
    "latitude": 38.9691174,
    "longitude": -77.0188687,
    "state": "Maryland",
    "stateAbbr": "MD",
    "tags": {
      "leisure": "dog_park",
      "name": "Takoma Dog Park"
    }
  },
  {
    "id": 1005059425,
    "name": "Chevy Chase Dog Park",
    "latitude": 38.9642857,
    "longitude": -77.080967,
    "state": "Maryland",
    "stateAbbr": "MD",
    "tags": {
      "leisure": "dog_park",
      "name": "Chevy Chase Dog Park"
    }
  },
  {
    "id": 1005063435,
    "name": "Langdon Dog Park",
    "latitude": 38.926432,
    "longitude": -76.9749168,
    "state": "Maryland",
    "stateAbbr": "MD",
    "tags": {
      "barrier": "fence",
      "leisure": "dog_park",
      "name": "Langdon Dog Park"
    }
  },
  {
    "id": 1005064328,
    "name": "Lansburgh Dog Park",
    "latitude": 38.8777576,
    "longitude": -77.0125503,
    "state": "Maryland",
    "stateAbbr": "MD",
    "tags": {
      "barrier": "fence",
      "leisure": "dog_park",
      "name": "Lansburgh Dog Park"
    }
  },
  {
    "id": 1007330339,
    "name": "Dog Park",
    "latitude": 39.2052365,
    "longitude": -76.7859678,
    "state": "Maryland",
    "stateAbbr": "MD",
    "tags": {
      "leisure": "dog_park"
    }
  },
  {
    "id": 1007399856,
    "name": "Dog Park",
    "latitude": 38.9180266,
    "longitude": -77.0766206,
    "state": "Maryland",
    "stateAbbr": "MD",
    "tags": {
      "access": "yes",
      "leisure": "dog_park",
      "surface": "grass"
    }
  },
  {
    "id": 1009151027,
    "name": "Dog Park",
    "latitude": 38.9228428,
    "longitude": -76.9960126,
    "state": "Maryland",
    "stateAbbr": "MD",
    "tags": {
      "leisure": "dog_park"
    }
  },
  {
    "id": 1021786512,
    "name": "Dog Park",
    "latitude": 38.8980118,
    "longitude": -77.0888513,
    "state": "Maryland",
    "stateAbbr": "MD",
    "tags": {
      "access": "private",
      "leisure": "dog_park"
    }
  },
  {
    "id": 1037782673,
    "name": "Dog Park",
    "latitude": 38.9902132,
    "longitude": -77.0301428,
    "state": "Maryland",
    "stateAbbr": "MD",
    "tags": {
      "access": "private",
      "leisure": "dog_park"
    }
  },
  {
    "id": 1041336011,
    "name": "Dog Park",
    "latitude": 39.4541123,
    "longitude": -76.6248549,
    "state": "Maryland",
    "stateAbbr": "MD",
    "tags": {
      "leisure": "dog_park"
    }
  },
  {
    "id": 1042080389,
    "name": "Dog Park",
    "latitude": 39.3348067,
    "longitude": -76.6295119,
    "state": "Maryland",
    "stateAbbr": "MD",
    "tags": {
      "leisure": "dog_park"
    }
  },
  {
    "id": 1043471830,
    "name": "Sandy-Trevor Dog Park",
    "latitude": 39.285725,
    "longitude": -76.8210828,
    "state": "Maryland",
    "stateAbbr": "MD",
    "tags": {
      "access": "private",
      "leisure": "dog_park",
      "name": "Sandy-Trevor Dog Park"
    }
  },
  {
    "id": 1047866423,
    "name": "Dog Park",
    "latitude": 38.208428,
    "longitude": -77.5060283,
    "state": "Maryland",
    "stateAbbr": "MD",
    "tags": {
      "leisure": "dog_park"
    }
  },
  {
    "id": 1051961437,
    "name": "Dog Park",
    "latitude": 39.0228888,
    "longitude": -76.7243758,
    "state": "Maryland",
    "stateAbbr": "MD",
    "tags": {
      "leisure": "dog_park"
    }
  },
  {
    "id": 1052055628,
    "name": "Dog Park",
    "latitude": 38.2519644,
    "longitude": -77.502567,
    "state": "Maryland",
    "stateAbbr": "MD",
    "tags": {
      "leisure": "dog_park"
    }
  },
  {
    "id": 1052347578,
    "name": "Darden-Towe Dog Park",
    "latitude": 38.0442412,
    "longitude": -78.4491866,
    "state": "Maryland",
    "stateAbbr": "MD",
    "tags": {
      "access": "yes",
      "leisure": "dog_park",
      "name": "Darden-Towe Dog Park",
      "operator": "Albemarle County Parks and Recreation",
      "website": "https://www.albemarle.org/government/parks-recreation/parks/dog-parks"
    }
  },
  {
    "id": 1064851150,
    "name": "Dog Park",
    "latitude": 38.0731789,
    "longitude": -78.4927452,
    "state": "Maryland",
    "stateAbbr": "MD",
    "tags": {
      "leisure": "dog_park"
    }
  },
  {
    "id": 1068812971,
    "name": "Dog Park",
    "latitude": 38.9035315,
    "longitude": -77.0023494,
    "state": "Maryland",
    "stateAbbr": "MD",
    "tags": {
      "leisure": "dog_park"
    }
  },
  {
    "id": 1070053876,
    "name": "Carlyle Dog Park",
    "latitude": 38.8041386,
    "longitude": -77.0678304,
    "state": "Maryland",
    "stateAbbr": "MD",
    "tags": {
      "leisure": "dog_park",
      "lit": "no",
      "name": "Carlyle Dog Park"
    }
  },
  {
    "id": 1072038647,
    "name": "Dog Park",
    "latitude": 38.9067985,
    "longitude": -77.053651,
    "state": "Maryland",
    "stateAbbr": "MD",
    "tags": {
      "leisure": "dog_park"
    }
  },
  {
    "id": 1075397281,
    "name": "Dog Park",
    "latitude": 39.143615,
    "longitude": -77.4126069,
    "state": "Maryland",
    "stateAbbr": "MD",
    "tags": {
      "leisure": "dog_park"
    }
  },
  {
    "id": 1077530148,
    "name": "Dog Park",
    "latitude": 38.8719403,
    "longitude": -77.3152593,
    "state": "Maryland",
    "stateAbbr": "MD",
    "tags": {
      "access": "private",
      "leisure": "dog_park"
    }
  },
  {
    "id": 1079330293,
    "name": "94th Street Ocean City Dog Playground",
    "latitude": 38.4104177,
    "longitude": -75.0618349,
    "state": "Maryland",
    "stateAbbr": "MD",
    "tags": {
      "leisure": "dog_park",
      "name": "94th Street Ocean City Dog Playground"
    }
  },
  {
    "id": 1081953018,
    "name": "Dog Park",
    "latitude": 38.8528731,
    "longitude": -77.3292585,
    "state": "Maryland",
    "stateAbbr": "MD",
    "tags": {
      "leisure": "dog_park"
    }
  },
  {
    "id": 1082379424,
    "name": "Dog Park",
    "latitude": 38.7306448,
    "longitude": -77.5560348,
    "state": "Maryland",
    "stateAbbr": "MD",
    "tags": {
      "barrier": "fence",
      "fence_type": "chain_link",
      "leisure": "dog_park"
    }
  },
  {
    "id": 1089933743,
    "name": "Dog Park",
    "latitude": 38.7323267,
    "longitude": -77.4705091,
    "state": "Maryland",
    "stateAbbr": "MD",
    "tags": {
      "leisure": "dog_park"
    }
  },
  {
    "id": 1097848149,
    "name": "Dog Park",
    "latitude": 39.5225593,
    "longitude": -77.9462243,
    "state": "Maryland",
    "stateAbbr": "MD",
    "tags": {
      "leisure": "dog_park"
    }
  },
  {
    "id": 1101867969,
    "name": "Dog Park",
    "latitude": 38.8595557,
    "longitude": -77.0651526,
    "state": "Maryland",
    "stateAbbr": "MD",
    "tags": {
      "leisure": "dog_park"
    }
  },
  {
    "id": 1103030255,
    "name": "Dog Park",
    "latitude": 38.7572244,
    "longitude": -77.44615,
    "state": "Maryland",
    "stateAbbr": "MD",
    "tags": {
      "barrier": "fence",
      "leisure": "dog_park"
    }
  },
  {
    "id": 1105833238,
    "name": "Dog Park",
    "latitude": 39.2681785,
    "longitude": -77.6371955,
    "state": "Maryland",
    "stateAbbr": "MD",
    "tags": {
      "leisure": "dog_park"
    }
  },
  {
    "id": 1108377202,
    "name": "Dog Beach",
    "latitude": 38.9301267,
    "longitude": -76.5080052,
    "state": "Maryland",
    "stateAbbr": "MD",
    "tags": {
      "leisure": "dog_park",
      "name": "Dog Beach"
    }
  },
  {
    "id": 1111672801,
    "name": "Dog Park",
    "latitude": 38.5973552,
    "longitude": -77.2860266,
    "state": "Maryland",
    "stateAbbr": "MD",
    "tags": {
      "leisure": "dog_park"
    }
  },
  {
    "id": 1112105117,
    "name": "Dog Park",
    "latitude": 38.4223023,
    "longitude": -78.8798873,
    "state": "Maryland",
    "stateAbbr": "MD",
    "tags": {
      "leisure": "dog_park"
    }
  },
  {
    "id": 1115917629,
    "name": "Dog Park",
    "latitude": 38.4489568,
    "longitude": -78.832459,
    "state": "Maryland",
    "stateAbbr": "MD",
    "tags": {
      "leisure": "dog_park"
    }
  },
  {
    "id": 1115917630,
    "name": "Dog Park",
    "latitude": 38.4499939,
    "longitude": -78.8328336,
    "state": "Maryland",
    "stateAbbr": "MD",
    "tags": {
      "leisure": "dog_park"
    }
  },
  {
    "id": 1125096908,
    "name": "Dog Park",
    "latitude": 39.3382535,
    "longitude": -77.3629222,
    "state": "Maryland",
    "stateAbbr": "MD",
    "tags": {
      "leisure": "dog_park"
    }
  },
  {
    "id": 1126497442,
    "name": "Dog Park",
    "latitude": 39.3088963,
    "longitude": -76.7076056,
    "state": "Maryland",
    "stateAbbr": "MD",
    "tags": {
      "leisure": "dog_park"
    }
  },
  {
    "id": 1127575742,
    "name": "Dog Park",
    "latitude": 39.1840164,
    "longitude": -76.7595468,
    "state": "Maryland",
    "stateAbbr": "MD",
    "tags": {
      "leisure": "dog_park"
    }
  },
  {
    "id": 1133831308,
    "name": "Mosaic Dog Park",
    "latitude": 38.8695125,
    "longitude": -77.2318769,
    "state": "Maryland",
    "stateAbbr": "MD",
    "tags": {
      "leisure": "dog_park",
      "name": "Mosaic Dog Park",
      "wheelchair": "yes"
    }
  },
  {
    "id": 1137849889,
    "name": "Del Ray Central Bark Park",
    "latitude": 38.8334734,
    "longitude": -77.059424,
    "state": "Maryland",
    "stateAbbr": "MD",
    "tags": {
      "access": "private",
      "leisure": "dog_park",
      "name": "Del Ray Central Bark Park"
    }
  },
  {
    "id": 1153072678,
    "name": "Dog Park",
    "latitude": 38.0699393,
    "longitude": -78.5003291,
    "state": "Maryland",
    "stateAbbr": "MD",
    "tags": {
      "access": "private",
      "leisure": "dog_park"
    }
  },
  {
    "id": 1153590643,
    "name": "Dog Park",
    "latitude": 38.8319073,
    "longitude": -77.1271,
    "state": "Maryland",
    "stateAbbr": "MD",
    "tags": {
      "leisure": "dog_park"
    }
  },
  {
    "id": 1155092981,
    "name": "Dog Park",
    "latitude": 39.3557229,
    "longitude": -76.5428922,
    "state": "Maryland",
    "stateAbbr": "MD",
    "tags": {
      "barrier": "fence",
      "leisure": "dog_park"
    }
  },
  {
    "id": 1156606614,
    "name": "Shirlington Dog Park",
    "latitude": 38.844704,
    "longitude": -77.0931049,
    "state": "Maryland",
    "stateAbbr": "MD",
    "tags": {
      "access": "yes",
      "addr:city": "Arlington",
      "addr:housenumber": "2701",
      "addr:postcode": "22206",
      "addr:state": "VA",
      "addr:street": "South Oakland Street",
      "dog": "yes",
      "leisure": "dog_park",
      "name": "Shirlington Dog Park"
    }
  },
  {
    "id": 1156797746,
    "name": "Dog Park",
    "latitude": 39.2388332,
    "longitude": -76.6294295,
    "state": "Maryland",
    "stateAbbr": "MD",
    "tags": {
      "leisure": "dog_park"
    }
  },
  {
    "id": 1157213797,
    "name": "Dog Park",
    "latitude": 38.0740959,
    "longitude": -78.4714024,
    "state": "Maryland",
    "stateAbbr": "MD",
    "tags": {
      "access": "private",
      "leisure": "dog_park"
    }
  },
  {
    "id": 1157531295,
    "name": "Shaw Dog Park",
    "latitude": 38.9120025,
    "longitude": -77.0266187,
    "state": "Maryland",
    "stateAbbr": "MD",
    "tags": {
      "access": "yes",
      "addr:housenumber": "1673",
      "addr:street": "11th Street Northwest",
      "leisure": "dog_park",
      "name": "Shaw Dog Park",
      "operator": "District of Columbia Department of Parks and Recreation",
      "operator:type": "government",
      "website": "http://shawdogs.org/"
    }
  },
  {
    "id": 1158481514,
    "name": "Dog Park",
    "latitude": 38.5576437,
    "longitude": -77.3214516,
    "state": "Maryland",
    "stateAbbr": "MD",
    "tags": {
      "leisure": "dog_park"
    }
  },
  {
    "id": 1161115228,
    "name": "Dog Park",
    "latitude": 39.2677848,
    "longitude": -76.6094412,
    "state": "Maryland",
    "stateAbbr": "MD",
    "tags": {
      "barrier": "fence",
      "leisure": "dog_park"
    }
  },
  {
    "id": 1164513441,
    "name": "Guy Mason Recreation Center Dog Park",
    "latitude": 38.9217872,
    "longitude": -77.0710079,
    "state": "Maryland",
    "stateAbbr": "MD",
    "tags": {
      "leisure": "dog_park",
      "name": "Guy Mason Recreation Center Dog Park"
    }
  },
  {
    "id": 1164599178,
    "name": "Dog Park",
    "latitude": 38.643074,
    "longitude": -77.267848,
    "state": "Maryland",
    "stateAbbr": "MD",
    "tags": {
      "leisure": "dog_park"
    }
  },
  {
    "id": 1165443716,
    "name": "Dog Park",
    "latitude": 38.9759306,
    "longitude": -77.5452328,
    "state": "Maryland",
    "stateAbbr": "MD",
    "tags": {
      "access": "yes",
      "barrier": "fence",
      "leisure": "dog_park",
      "opening_hours": "sunrise-sunset",
      "operator": "Loudoun County Parks, Recreation, & Community Services",
      "operator:type": "government",
      "website": "https://www.loudoun.gov/5786/Hal-Berni-Hanson-Regional-Park",
      "wheelchair": "limited"
    }
  },
  {
    "id": 1165455693,
    "name": "Dog Park",
    "latitude": 38.9727641,
    "longitude": -77.5544769,
    "state": "Maryland",
    "stateAbbr": "MD",
    "tags": {
      "access": "yes",
      "leisure": "dog_park"
    }
  },
  {
    "id": 1175465126,
    "name": "Dog Park",
    "latitude": 38.592581,
    "longitude": -77.3139113,
    "state": "Maryland",
    "stateAbbr": "MD",
    "tags": {
      "barrier": "fence",
      "leisure": "dog_park"
    }
  },
  {
    "id": 1182954000,
    "name": "Dog Park",
    "latitude": 38.9732609,
    "longitude": -77.029186,
    "state": "Maryland",
    "stateAbbr": "MD",
    "tags": {
      "leisure": "dog_park"
    }
  },
  {
    "id": 1183478546,
    "name": "Small Dog Run",
    "latitude": 38.8607303,
    "longitude": -77.0549749,
    "state": "Maryland",
    "stateAbbr": "MD",
    "tags": {
      "access": "yes",
      "leisure": "dog_park",
      "name": "Small Dog Run",
      "wheelchair": "yes"
    }
  },
  {
    "id": 1183687128,
    "name": "Dog Park",
    "latitude": 38.8585579,
    "longitude": -77.0495215,
    "state": "Maryland",
    "stateAbbr": "MD",
    "tags": {
      "leisure": "dog_park"
    }
  },
  {
    "id": 1187343140,
    "name": "Dog Park",
    "latitude": 39.0233118,
    "longitude": -76.9423961,
    "state": "Maryland",
    "stateAbbr": "MD",
    "tags": {
      "leisure": "dog_park"
    }
  },
  {
    "id": 1190444636,
    "name": "Dog Park",
    "latitude": 38.8670714,
    "longitude": -77.0093965,
    "state": "Maryland",
    "stateAbbr": "MD",
    "tags": {
      "leisure": "dog_park"
    }
  },
  {
    "id": 1193057742,
    "name": "Dog Park",
    "latitude": 38.6343306,
    "longitude": -77.4296322,
    "state": "Maryland",
    "stateAbbr": "MD",
    "tags": {
      "leisure": "dog_park"
    }
  },
  {
    "id": 1196613621,
    "name": "Dog Park",
    "latitude": 38.7333051,
    "longitude": -77.1289034,
    "state": "Maryland",
    "stateAbbr": "MD",
    "tags": {
      "leisure": "dog_park"
    }
  },
  {
    "id": 1200898128,
    "name": "Dog Park",
    "latitude": 38.6478468,
    "longitude": -77.2655739,
    "state": "Maryland",
    "stateAbbr": "MD",
    "tags": {
      "leisure": "dog_park"
    }
  },
  {
    "id": 1205461848,
    "name": "Dog Park",
    "latitude": 39.4643818,
    "longitude": -77.4488588,
    "state": "Maryland",
    "stateAbbr": "MD",
    "tags": {
      "leisure": "dog_park"
    }
  },
  {
    "id": 1210788959,
    "name": "Dog Park",
    "latitude": 38.906976,
    "longitude": -77.0073643,
    "state": "Maryland",
    "stateAbbr": "MD",
    "tags": {
      "leisure": "dog_park",
      "location": "roof",
      "surface": "artificial_turf"
    }
  },
  {
    "id": 1214363332,
    "name": "Dog Park",
    "latitude": 38.9228544,
    "longitude": -77.2070937,
    "state": "Maryland",
    "stateAbbr": "MD",
    "tags": {
      "leisure": "dog_park",
      "wheelchair": "yes"
    }
  },
  {
    "id": 1217441278,
    "name": "Dog Park",
    "latitude": 38.9482839,
    "longitude": -77.418024,
    "state": "Maryland",
    "stateAbbr": "MD",
    "tags": {
      "leisure": "dog_park"
    }
  },
  {
    "id": 1220173284,
    "name": "Dog Park",
    "latitude": 38.1562263,
    "longitude": -78.4836528,
    "state": "Maryland",
    "stateAbbr": "MD",
    "tags": {
      "leisure": "dog_park"
    }
  },
  {
    "id": 1226720776,
    "name": "Dog Park",
    "latitude": 38.0215298,
    "longitude": -79.1414668,
    "state": "Maryland",
    "stateAbbr": "MD",
    "tags": {
      "barrier": "fence",
      "leisure": "dog_park"
    }
  },
  {
    "id": 1231351954,
    "name": "Bark and Go Dog Park",
    "latitude": 38.8806876,
    "longitude": -77.0048367,
    "state": "Maryland",
    "stateAbbr": "MD",
    "tags": {
      "access": "yes",
      "leisure": "dog_park",
      "name": "Bark and Go Dog Park"
    }
  },
  {
    "id": 1233242553,
    "name": "Bark Park",
    "latitude": 39.1153892,
    "longitude": -77.2002764,
    "state": "Maryland",
    "stateAbbr": "MD",
    "tags": {
      "leisure": "dog_park",
      "name": "Bark Park"
    }
  },
  {
    "id": 1233842981,
    "name": "Canine Cardio",
    "latitude": 38.8436524,
    "longitude": -77.0896975,
    "state": "Maryland",
    "stateAbbr": "MD",
    "tags": {
      "addr:city": "Arlington",
      "addr:housenumber": "2709",
      "addr:postcode": "22206",
      "addr:state": "VA",
      "addr:street": "S OAKLAND ST.",
      "leisure": "dog_park",
      "name": "Canine Cardio",
      "website": "https://www.snoutsnstouts.com/"
    }
  },
  {
    "id": 1235938378,
    "name": "Dog Park",
    "latitude": 39.3549277,
    "longitude": -76.4121217,
    "state": "Maryland",
    "stateAbbr": "MD",
    "tags": {
      "leisure": "dog_park"
    }
  },
  {
    "id": 1236412343,
    "name": "Dog Park",
    "latitude": 39.4504752,
    "longitude": -77.3936808,
    "state": "Maryland",
    "stateAbbr": "MD",
    "tags": {
      "access": "private",
      "leisure": "dog_park"
    }
  },
  {
    "id": 1236681873,
    "name": "Dog Park",
    "latitude": 38.4567061,
    "longitude": -77.8986165,
    "state": "Maryland",
    "stateAbbr": "MD",
    "tags": {
      "leisure": "dog_park"
    }
  },
  {
    "id": 1237320911,
    "name": "Dog Park",
    "latitude": 39.1085439,
    "longitude": -77.2038344,
    "state": "Maryland",
    "stateAbbr": "MD",
    "tags": {
      "access": "private",
      "leisure": "dog_park"
    }
  },
  {
    "id": 1237329274,
    "name": "Dog Park",
    "latitude": 38.4813973,
    "longitude": -78.0675461,
    "state": "Maryland",
    "stateAbbr": "MD",
    "tags": {
      "leisure": "dog_park"
    }
  },
  {
    "id": 1238526767,
    "name": "Kimco Realty Dog Park",
    "latitude": 39.122438,
    "longitude": -77.2359632,
    "state": "Maryland",
    "stateAbbr": "MD",
    "tags": {
      "leisure": "dog_park",
      "name": "Kimco Realty Dog Park"
    }
  },
  {
    "id": 1241282912,
    "name": "Camden Bark Park",
    "latitude": 39.1057179,
    "longitude": -77.2023611,
    "state": "Maryland",
    "stateAbbr": "MD",
    "tags": {
      "leisure": "dog_park",
      "name": "Camden Bark Park"
    }
  },
  {
    "id": 1255038550,
    "name": "Dog Park",
    "latitude": 39.0418725,
    "longitude": -77.4398428,
    "state": "Maryland",
    "stateAbbr": "MD",
    "tags": {
      "barrier": "fence",
      "leisure": "dog_park"
    }
  },
  {
    "id": 1255290972,
    "name": "Dog Park",
    "latitude": 38.7091279,
    "longitude": -77.7940471,
    "state": "Maryland",
    "stateAbbr": "MD",
    "tags": {
      "leisure": "dog_park"
    }
  },
  {
    "id": 1269117631,
    "name": "Dog Park",
    "latitude": 39.6466796,
    "longitude": -78.9403053,
    "state": "Maryland",
    "stateAbbr": "MD",
    "tags": {
      "leisure": "dog_park"
    }
  },
  {
    "id": 1279219346,
    "name": "Dog Park",
    "latitude": 38.7585637,
    "longitude": -77.6237659,
    "state": "Maryland",
    "stateAbbr": "MD",
    "tags": {
      "access": "yes",
      "dog": "designated",
      "leisure": "dog_park"
    }
  },
  {
    "id": 1282031587,
    "name": "Dog Park",
    "latitude": 38.8244237,
    "longitude": -77.0506126,
    "state": "Maryland",
    "stateAbbr": "MD",
    "tags": {
      "addr:city": "Alexandria",
      "addr:housenumber": "529",
      "addr:postcode": "22301",
      "addr:state": "VA",
      "addr:street": "East Howell Avenue",
      "barrier": "fence",
      "dog": "unleashed",
      "leisure": "dog_park",
      "operator": "Bark Social - Alexendria"
    }
  },
  {
    "id": 1282036984,
    "name": "Dog Park",
    "latitude": 38.0422443,
    "longitude": -78.4948041,
    "state": "Maryland",
    "stateAbbr": "MD",
    "tags": {
      "leisure": "dog_park"
    }
  },
  {
    "id": 1284173300,
    "name": "Avalon Chuch Dog Park",
    "latitude": 38.8736921,
    "longitude": -77.1695785,
    "state": "Maryland",
    "stateAbbr": "MD",
    "tags": {
      "access": "private",
      "leisure": "dog_park",
      "name": "Avalon Chuch Dog Park",
      "operator": "Avalon",
      "operator:type": "private"
    }
  },
  {
    "id": 1284737035,
    "name": "Dog Park",
    "latitude": 38.3609685,
    "longitude": -77.5328938,
    "state": "Maryland",
    "stateAbbr": "MD",
    "tags": {
      "leisure": "dog_park"
    }
  },
  {
    "id": 1293535302,
    "name": "Dog Park",
    "latitude": 39.3187002,
    "longitude": -78.3247865,
    "state": "Maryland",
    "stateAbbr": "MD",
    "tags": {
      "leisure": "dog_park"
    }
  },
  {
    "id": 1299355816,
    "name": "Dog Park",
    "latitude": 39.0907124,
    "longitude": -77.5429328,
    "state": "Maryland",
    "stateAbbr": "MD",
    "tags": {
      "leisure": "dog_park"
    }
  },
  {
    "id": 1301015348,
    "name": "Dog Park",
    "latitude": 39.3311485,
    "longitude": -76.6443819,
    "state": "Maryland",
    "stateAbbr": "MD",
    "tags": {
      "leisure": "dog_park"
    }
  },
  {
    "id": 1303521765,
    "name": "Frances J. Tilghman Memorial Dog Park",
    "latitude": 38.3596847,
    "longitude": -75.5774226,
    "state": "Maryland",
    "stateAbbr": "MD",
    "tags": {
      "access": "yes",
      "leisure": "dog_park",
      "name": "Frances J. Tilghman Memorial Dog Park",
      "operator": "CIty of Salisbury",
      "operator:type": "government",
      "website": "https://sbyparksandrec.com/recreation/salisbury-dog-park"
    }
  },
  {
    "id": 1304165402,
    "name": "Oakland Dog Park",
    "latitude": 39.413003,
    "longitude": -79.416933,
    "state": "Maryland",
    "stateAbbr": "MD",
    "tags": {
      "addr:city": "Oakland",
      "addr:housenumber": "27",
      "addr:state": "Maryland",
      "addr:street": "Oakland Rosedale Road",
      "leisure": "dog_park",
      "name": "Oakland Dog Park",
      "operator": "Town of Oakland",
      "operator:type": "government"
    }
  },
  {
    "id": 1308046659,
    "name": "Dog Park",
    "latitude": 38.2252319,
    "longitude": -77.4268584,
    "state": "Maryland",
    "stateAbbr": "MD",
    "tags": {
      "leisure": "dog_park"
    }
  },
  {
    "id": 1308816784,
    "name": "Dog Park",
    "latitude": 39.4715346,
    "longitude": -76.6050487,
    "state": "Maryland",
    "stateAbbr": "MD",
    "tags": {
      "leisure": "dog_park"
    }
  },
  {
    "id": 1308816785,
    "name": "Dog Park",
    "latitude": 39.4674663,
    "longitude": -76.6069732,
    "state": "Maryland",
    "stateAbbr": "MD",
    "tags": {
      "access": "customers",
      "leisure": "dog_park"
    }
  },
  {
    "id": 1316033364,
    "name": "Dog Park",
    "latitude": 38.9461641,
    "longitude": -77.3324175,
    "state": "Maryland",
    "stateAbbr": "MD",
    "tags": {
      "leisure": "dog_park",
      "wheelchair": "yes"
    }
  },
  {
    "id": 1318038091,
    "name": "Dog Park",
    "latitude": 39.1440885,
    "longitude": -77.2230601,
    "state": "Maryland",
    "stateAbbr": "MD",
    "tags": {
      "access": "private",
      "leisure": "dog_park"
    }
  },
  {
    "id": 1319617974,
    "name": "Dog Park",
    "latitude": 39.1524166,
    "longitude": -76.7145283,
    "state": "Maryland",
    "stateAbbr": "MD",
    "tags": {
      "barrier": "fence",
      "fence_type": "chain_link",
      "leisure": "dog_park"
    }
  },
  {
    "id": 1319769818,
    "name": "Dog Park",
    "latitude": 39.1183361,
    "longitude": -77.2075267,
    "state": "Maryland",
    "stateAbbr": "MD",
    "tags": {
      "access": "private",
      "leisure": "dog_park"
    }
  },
  {
    "id": 1321725735,
    "name": "Hunt Club Dog Park",
    "latitude": 39.1570637,
    "longitude": -77.2086563,
    "state": "Maryland",
    "stateAbbr": "MD",
    "tags": {
      "barrier": "fence",
      "fence_type": "wood",
      "leisure": "dog_park",
      "name": "Hunt Club Dog Park"
    }
  },
  {
    "id": 1323813226,
    "name": "Dog Park",
    "latitude": 38.7944593,
    "longitude": -76.8958133,
    "state": "Maryland",
    "stateAbbr": "MD",
    "tags": {
      "barrier": "fence",
      "leisure": "dog_park"
    }
  },
  {
    "id": 1323813233,
    "name": "Dog Park",
    "latitude": 38.7998312,
    "longitude": -76.8931536,
    "state": "Maryland",
    "stateAbbr": "MD",
    "tags": {
      "barrier": "fence",
      "leisure": "dog_park"
    }
  },
  {
    "id": 1326087126,
    "name": "Dog Park",
    "latitude": 39.0878218,
    "longitude": -77.1521526,
    "state": "Maryland",
    "stateAbbr": "MD",
    "tags": {
      "access": "private",
      "leisure": "dog_park"
    }
  },
  {
    "id": 1326109794,
    "name": "Dog Park",
    "latitude": 38.7886696,
    "longitude": -76.8919185,
    "state": "Maryland",
    "stateAbbr": "MD",
    "tags": {
      "barrier": "fence",
      "leisure": "dog_park"
    }
  },
  {
    "id": 1354671392,
    "name": "Dog Park",
    "latitude": 39.3305997,
    "longitude": -76.3938005,
    "state": "Maryland",
    "stateAbbr": "MD",
    "tags": {
      "leisure": "dog_park"
    }
  },
  {
    "id": 1355301193,
    "name": "Dog Park",
    "latitude": 38.840393,
    "longitude": -77.0226316,
    "state": "Maryland",
    "stateAbbr": "MD",
    "tags": {
      "leisure": "dog_park"
    }
  },
  {
    "id": 1370888054,
    "name": "Dog Park",
    "latitude": 39.2844456,
    "longitude": -76.5490049,
    "state": "Maryland",
    "stateAbbr": "MD",
    "tags": {
      "access": "private",
      "leisure": "dog_park"
    }
  },
  {
    "id": 1375972141,
    "name": "Vienna Dog Park",
    "latitude": 38.8887538,
    "longitude": -77.2729789,
    "state": "Maryland",
    "stateAbbr": "MD",
    "tags": {
      "access": "yes",
      "addr:city": "Vienna",
      "addr:housenumber": "700",
      "addr:postcode": "22180",
      "addr:state": "VA",
      "addr:street": "700 Courthouse Road SW",
      "dog": "yes",
      "leisure": "dog_park",
      "name": "Vienna Dog Park",
      "opening_hours": "sunrise-sunset",
      "operator": "Town of Vienna",
      "operator:type": "government",
      "website": "https://www.viennava.gov/Home/Components/FacilityDirectory/FacilityDirectory/24/67"
    }
  },
  {
    "id": 1377217445,
    "name": "Oldham Crossing Community Dog Park",
    "latitude": 39.2916407,
    "longitude": -76.5569594,
    "state": "Maryland",
    "stateAbbr": "MD",
    "tags": {
      "access": "private",
      "leisure": "dog_park",
      "name": "Oldham Crossing Community Dog Park",
      "operator": "Oldham Crossing HOA",
      "operator:type": "private"
    }
  },
  {
    "id": 1381095652,
    "name": "Belmont Road Park",
    "latitude": 38.9189641,
    "longitude": -77.0511593,
    "state": "Maryland",
    "stateAbbr": "MD",
    "tags": {
      "informal": "yes",
      "leisure": "dog_park",
      "name": "Belmont Road Park"
    }
  },
  {
    "id": 1385224618,
    "name": "Dog Park",
    "latitude": 38.3385938,
    "longitude": -75.5970205,
    "state": "Maryland",
    "stateAbbr": "MD",
    "tags": {
      "barrier": "fence",
      "leisure": "dog_park"
    }
  },
  {
    "id": 1387855534,
    "name": "Dog Park",
    "latitude": 38.8551158,
    "longitude": -77.0506113,
    "state": "Maryland",
    "stateAbbr": "MD",
    "tags": {
      "leisure": "dog_park"
    }
  },
  {
    "id": 1410370265,
    "name": "Dog Park",
    "latitude": 39.2076036,
    "longitude": -76.8186539,
    "state": "Maryland",
    "stateAbbr": "MD",
    "tags": {
      "leisure": "dog_park"
    }
  },
  {
    "id": 1413438783,
    "name": "Dog Park",
    "latitude": 39.6727274,
    "longitude": -78.7161096,
    "state": "Maryland",
    "stateAbbr": "MD",
    "tags": {
      "brand": "Love's",
      "brand:wikidata": "Q1872496",
      "leisure": "dog_park"
    }
  },
  {
    "id": 1416617890,
    "name": "Dog Park",
    "latitude": 38.3462613,
    "longitude": -77.5171386,
    "state": "Maryland",
    "stateAbbr": "MD",
    "tags": {
      "leisure": "dog_park"
    }
  },
  {
    "id": 1419485407,
    "name": "Dog Park",
    "latitude": 38.3548752,
    "longitude": -77.4994827,
    "state": "Maryland",
    "stateAbbr": "MD",
    "tags": {
      "leisure": "dog_park"
    }
  },
  {
    "id": 1420941553,
    "name": "Dog Park",
    "latitude": 38.8518416,
    "longitude": -77.7862565,
    "state": "Maryland",
    "stateAbbr": "MD",
    "tags": {
      "barrier": "fence",
      "fence_type": "chain_link",
      "leisure": "dog_park"
    }
  },
  {
    "id": 1427596679,
    "name": "Dog Park",
    "latitude": 38.8789905,
    "longitude": -76.9032262,
    "state": "Maryland",
    "stateAbbr": "MD",
    "tags": {
      "leisure": "dog_park"
    }
  },
  {
    "id": 1433637619,
    "name": "Canis Major Dog Park",
    "latitude": 38.9484019,
    "longitude": -77.3626219,
    "state": "Maryland",
    "stateAbbr": "MD",
    "tags": {
      "access": "yes",
      "leisure": "dog_park",
      "name": "Canis Major Dog Park"
    }
  },
  {
    "id": 1448482379,
    "name": "Dog Park",
    "latitude": 38.9018169,
    "longitude": -77.0548963,
    "state": "Maryland",
    "stateAbbr": "MD",
    "tags": {
      "leisure": "dog_park"
    }
  },
  {
    "id": 1452946281,
    "name": "Dog Park",
    "latitude": 38.7987849,
    "longitude": -77.0686005,
    "state": "Maryland",
    "stateAbbr": "MD",
    "tags": {
      "access": "private",
      "leisure": "dog_park"
    }
  },
  {
    "id": 1452982404,
    "name": "Dog Park",
    "latitude": 38.6164691,
    "longitude": -77.2853204,
    "state": "Maryland",
    "stateAbbr": "MD",
    "tags": {
      "leisure": "dog_park"
    }
  },
  {
    "id": 1453237807,
    "name": "Dog Park",
    "latitude": 39.4717391,
    "longitude": -76.6348247,
    "state": "Maryland",
    "stateAbbr": "MD",
    "tags": {
      "leisure": "dog_park"
    }
  },
  {
    "id": 1456414196,
    "name": "Dog Park",
    "latitude": 38.8635175,
    "longitude": -77.3862447,
    "state": "Maryland",
    "stateAbbr": "MD",
    "tags": {
      "leisure": "dog_park"
    }
  },
  {
    "id": 1463599224,
    "name": "Dog Park",
    "latitude": 39.1284957,
    "longitude": -76.584092,
    "state": "Maryland",
    "stateAbbr": "MD",
    "tags": {
      "access": "private",
      "dog": "unleashed",
      "leisure": "dog_park",
      "operator": "Creekstone Village",
      "operator:type": "community"
    }
  },
  {
    "id": 1467903244,
    "name": "Dog Park",
    "latitude": 39.1718208,
    "longitude": -76.5768336,
    "state": "Maryland",
    "stateAbbr": "MD",
    "tags": {
      "access": "private",
      "leisure": "dog_park",
      "operator": "Tanyard Shores Homeowners Association",
      "operator:type": "community"
    }
  },
  {
    "id": 1471133282,
    "name": "Dog Park",
    "latitude": 38.5841712,
    "longitude": -77.3032004,
    "state": "Maryland",
    "stateAbbr": "MD",
    "tags": {
      "leisure": "dog_park"
    }
  },
  {
    "id": 1471884268,
    "name": "Dog Park",
    "latitude": 39.5639179,
    "longitude": -76.9952741,
    "state": "Maryland",
    "stateAbbr": "MD",
    "tags": {
      "leisure": "dog_park"
    }
  },
  {
    "id": 1481627319,
    "name": "Dog Park",
    "latitude": 38.6184995,
    "longitude": -77.2847295,
    "state": "Maryland",
    "stateAbbr": "MD",
    "tags": {
      "leisure": "dog_park"
    }
  },
  {
    "id": 1482030751,
    "name": "Dog Park",
    "latitude": 38.0477207,
    "longitude": -79.0978027,
    "state": "Maryland",
    "stateAbbr": "MD",
    "tags": {
      "leisure": "dog_park",
      "name": "Dog Park"
    }
  },
  {
    "id": 1485163538,
    "name": "Dog Park",
    "latitude": 39.0052144,
    "longitude": -76.9205386,
    "state": "Maryland",
    "stateAbbr": "MD",
    "tags": {
      "barrier": "fence",
      "leisure": "dog_park"
    }
  },