[
  {
    "id": 873358612,
    "name": "Lions Dog Park",
    "latitude": 44.8034599,
    "longitude": -106.9489482,
    "state": "Montana",
    "stateAbbr": "MT",
    "tags": {
      "brand": "Lions Clubs International",
      "brand:wikidata": "Q270029",
      "leisure": "dog_park",
      "name": "Lions Dog Park",
      "operator": "Lions Clubs International"
    }
  },
  {
    "id": 1146124379,
    "name": "Huntington Dog Park",
    "latitude": 44.7861408,
    "longitude": -106.9618608,
    "state": "Montana",
    "stateAbbr": "MT",
    "tags": {
      "access": "yes",
      "leisure": "dog_park",
      "name": "Huntington Dog Park",
      "operator": "City of Sheridan"
    }
  },
  {
    "id": 1363349134,
    "name": "West 16th Street Dog Park",
    "latitude": 44.8191788,
    "longitude": -106.9606158,
    "state": "Montana",
    "stateAbbr": "MT",
    "tags": {
      "leisure": "dog_park",
      "name": "West 16th Street Dog Park"
    }
  },
  {
    "id": 8805128774,
    "name": "Dog Park",
    "latitude": 45.7717137,
    "longitude": -108.6003337,
    "state": "Montana",
    "stateAbbr": "MT",
    "tags": {
      "leisure": "dog_park"
    }
  },
  {
    "id": 468481520,
    "name": "Dog Park",
    "latitude": 45.8261676,
    "longitude": -108.5032928,
    "state": "Montana",
    "stateAbbr": "MT",
    "tags": {
      "leisure": "dog_park"
    }
  },
  {
    "id": 547118796,
    "name": "Dog Park",
    "latitude": 45.7588753,
    "longitude": -108.6296988,
    "state": "Montana",
    "stateAbbr": "MT",
    "tags": {
      "leisure": "dog_park"
    }
  },
  {
    "id": 550738779,
    "name": "Dog Park",
    "latitude": 45.6831899,
    "longitude": -108.7010514,
    "state": "Montana",
    "stateAbbr": "MT",
    "tags": {
      "leisure": "dog_park"
    }
  },
  {
    "id": 686502027,
    "name": "Moja Campbell Dog Park",
    "latitude": 45.6677125,
    "longitude": -110.5406018,
    "state": "Montana",
    "stateAbbr": "MT",
    "tags": {
      "description": "Located on the bank of the river",
      "leisure": "dog_park",
      "name": "Moja Campbell Dog Park"
    }
  },
  {
    "id": 851930688,
    "name": "Heights Dog Park",
    "latitude": 45.8296701,
    "longitude": -108.5258273,
    "state": "Montana",
    "stateAbbr": "MT",
    "tags": {
      "leisure": "dog_park",
      "name": "Heights Dog Park"
    }
  },
  {
    "id": 1082780308,
    "name": "Dog Park",
    "latitude": 47.3252818,
    "longitude": -106.1708635,
    "state": "Montana",
    "stateAbbr": "MT",
    "tags": {
      "barrier": "fence",
      "leisure": "dog_park"
    }
  },
  {
    "id": 1179859716,
    "name": "Dog Park",
    "latitude": 45.5979517,
    "longitude": -109.0652615,
    "state": "Montana",
    "stateAbbr": "MT",
    "tags": {
      "leisure": "dog_park"
    }
  },
  {
    "id": 1230225639,
    "name": "Dog Park",
    "latitude": 45.8404912,
    "longitude": -108.4834975,
    "state": "Montana",
    "stateAbbr": "MT",
    "tags": {
      "dog": "yes",
      "leisure": "dog_park",
      "operator": "Lake Elmo State Park",
      "operator:type": "public"
    }
  },
  {
    "id": 1276658535,
    "name": "Park City Dog Park",
    "latitude": 45.6333928,
    "longitude": -108.9173966,
    "state": "Montana",
    "stateAbbr": "MT",
    "tags": {
      "leisure": "dog_park",
      "name": "Park City Dog Park"
    }
  },
  {
    "id": 1366025128,
    "name": "Dog Park",
    "latitude": 47.7225043,
    "longitude": -104.184533,
    "state": "Montana",
    "stateAbbr": "MT",
    "tags": {
      "leisure": "dog_park"
    }
  },
  {
    "id": 1366025628,
    "name": "Dog Park",
    "latitude": 47.7110043,
    "longitude": -104.1607985,
    "state": "Montana",
    "stateAbbr": "MT",
    "tags": {
      "leisure": "dog_park"
    }
  },
  {
    "id": 1375460005,
    "name": "Dog Park",
    "latitude": 45.7596883,
    "longitude": -108.6148517,
    "state": "Montana",
    "stateAbbr": "MT",
    "tags": {
      "addr:city": "Billings",
      "addr:postcode": "59102",
      "addr:state": "MT",
      "leisure": "dog_park"
    }
  },
  {
    "id": 17682679,
    "name": "Dog Park",
    "latitude": 47.8263156,
    "longitude": -110.6641524,
    "state": "Montana",
    "stateAbbr": "MT",
    "tags": {
      "leisure": "dog_park",
      "type": "multipolygon",
      "wheelchair": "limited"
    }
  }
]