[
  {
    "id": 5117454978,
    "name": "Dog Park",
    "latitude": 39.5355992,
    "longitude": -83.4277481,
    "state": "Ohio",
    "stateAbbr": "OH",
    "tags": {
      "leisure": "dog_park"
    }
  },
  {
    "id": 5425758939,
    "name": "West State Dog Park",
    "latitude": 39.3330787,
    "longitude": -82.1220139,
    "state": "Ohio",
    "stateAbbr": "OH",
    "tags": {
      "leisure": "dog_park",
      "name": "West State Dog Park"
    }
  },
  {
    "id": 5641042007,
    "name": "Lake Sherman Park",
    "latitude": 40.7096511,
    "longitude": -81.4546445,
    "state": "Ohio",
    "stateAbbr": "OH",
    "tags": {
      "leisure": "dog_park",
      "name": "Lake Sherman Park"
    }
  },
  {
    "id": 6338847510,
    "name": "Dog Park",
    "latitude": 39.962283,
    "longitude": -81.9931521,
    "state": "Ohio",
    "stateAbbr": "OH",
    "tags": {
      "leisure": "dog_park"
    }
  },
  {
    "id": 6501104556,
    "name": "Willy's Dog Park",
    "latitude": 40.7982541,
    "longitude": -81.3901725,
    "state": "Ohio",
    "stateAbbr": "OH",
    "tags": {
      "leisure": "dog_park",
      "name": "Willy's Dog Park"
    }
  },
  {
    "id": 8816064854,
    "name": "Dog Park",
    "latitude": 41.4853511,
    "longitude": -81.6965904,
    "state": "Ohio",
    "stateAbbr": "OH",
    "tags": {
      "leisure": "dog_park"
    }
  },
  {
    "id": 9078288514,
    "name": "Dog Park",
    "latitude": 41.5029351,
    "longitude": -81.6109361,
    "state": "Ohio",
    "stateAbbr": "OH",
    "tags": {
      "access": "private",
      "leisure": "dog_park"
    }
  },
  {
    "id": 9910356681,
    "name": "Dog Park",
    "latitude": 40.154283,
    "longitude": -83.1931389,
    "state": "Ohio",
    "stateAbbr": "OH",
    "tags": {
      "leisure": "dog_park"
    }
  },
  {
    "id": 10014222772,
    "name": "Matt Haverkamp Foundation Dog Park",
    "latitude": 39.2738134,
    "longitude": -84.260312,
    "state": "Ohio",
    "stateAbbr": "OH",
    "tags": {
      "leisure": "dog_park",
      "name": "Matt Haverkamp Foundation Dog Park",
      "name:etymology": "Matt Haverkamp Foundation",
      "name:etymology:wikidata": "Q113895209",
      "operator": "Loveland Parks and Recreation Board",
      "operator:type": "public",
      "operator:wikidata": "Q113895357"
    }
  },
  {
    "id": 10733842231,
    "name": "Canning Family K-9 Park",
    "latitude": 41.4318245,
    "longitude": -82.0544601,
    "state": "Ohio",
    "stateAbbr": "OH",
    "tags": {
      "access": "yes",
      "addr:city": "Avon",
      "addr:housenumber": "3701",
      "addr:postcode": "44011",
      "addr:state": "OH",
      "addr:street": "Veterans Memorial Parkway",
      "dog": "unleashed",
      "email": "parksinfo@cityofavon.com",
      "internet_access": "no",
      "leisure": "dog_park",
      "name": "Canning Family K-9 Park",
      "operator": "City of Avon",
      "operator:type": "public",
      "phone": "+1-440-937-6106",
      "ref": "CWJW+J8 Avon, Ohio",
      "website": "https://www.cityofavon.com/778/Canning-Family-K-9-Park"
    }
  },
  {
    "id": 10820716492,
    "name": "Brookside Dog Park",
    "latitude": 40.8797004,
    "longitude": -82.348707,
    "state": "Ohio",
    "stateAbbr": "OH",
    "tags": {
      "access": "yes",
      "addr:city": "Ashland",
      "addr:housenumber": "1258",
      "addr:state": "OH",
      "addr:street": "North Baney Road",
      "dog": "yes",
      "leisure": "dog_park",
      "name": "Brookside Dog Park"
    }
  },
  {
    "id": 10820803238,
    "name": "Maize Memorial Dog Park",
    "latitude": 40.7639919,
    "longitude": -82.6415871,
    "state": "Ohio",
    "stateAbbr": "OH",
    "tags": {
      "access": "yes",
      "addr:city": "Ontario",
      "addr:housenumber": "3201-3311",
      "addr:state": "OH",
      "addr:street": "Milligan Rd",
      "dog": "yes",
      "leisure": "dog_park",
      "name": "Maize Memorial Dog Park"
    }
  },
  {
    "id": 10820809010,
    "name": "Bellville Dog Park Finnegan's Run",
    "latitude": 40.639305,
    "longitude": -82.5425782,
    "state": "Ohio",
    "stateAbbr": "OH",
    "tags": {
      "access": "yes",
      "addr:city": "Bellville",
      "addr:housenumber": "641",
      "addr:state": "OH",
      "addr:street": "State Route 97",
      "dog": "yes",
      "leisure": "dog_park",
      "name": "Bellville Dog Park Finnegan's Run"
    }
  },
  {
    "id": 11223210194,
    "name": "Dog Park",
    "latitude": 39.678659,
    "longitude": -80.8462653,
    "state": "Ohio",
    "stateAbbr": "OH",
    "tags": {
      "leisure": "dog_park",
      "survey:date": "2023-09-21"
    }
  },
  {
    "id": 12485176996,
    "name": "Noble Beast Brewing Co.",
    "latitude": 41.5079035,
    "longitude": -81.6864287,
    "state": "Ohio",
    "stateAbbr": "OH",
    "tags": {
      "addr:city": "Cleveland",
      "addr:housenumber": "1470",
      "addr:postcode": "44114",
      "addr:state": "OH",
      "addr:street": "Lakeside Avenue East",
      "leisure": "dog_park",
      "name": "Noble Beast Brewing Co."
    }
  },
  {
    "id": 13409743155,
    "name": "Barkham Park",
    "latitude": 39.5197432,
    "longitude": -84.7285139,
    "state": "Ohio",
    "stateAbbr": "OH",
    "tags": {
      "addr:city": "Oxford",
      "addr:housenumber": "5211",
      "addr:postcode": "45056",
      "addr:state": "OH",
      "addr:street": "Bonham Road",
      "leisure": "dog_park",
      "name": "Barkham Park",
      "website": "https://www.cityofoxford.org/government/departments/facilities.php"
    }
  },
  {
    "id": 13605974980,
    "name": "Wiggley Field Dog Park",
    "latitude": 39.9434892,
    "longitude": -83.7592354,
    "state": "Ohio",
    "stateAbbr": "OH",
    "tags": {
      "leisure": "dog_park",
      "name": "Wiggley Field Dog Park"
    }
  },
  {
    "id": 89376102,
    "name": "Dog Park",
    "latitude": 39.7671418,
    "longitude": -84.1197682,
    "state": "Ohio",
    "stateAbbr": "OH",
    "tags": {
      "area": "yes",
      "leisure": "dog_park"
    }
  },
  {
    "id": 89376212,
    "name": "Dog Park",
    "latitude": 39.7679591,
    "longitude": -84.1192964,
    "state": "Ohio",
    "stateAbbr": "OH",
    "tags": {
      "area": "yes",
      "leisure": "dog_park"
    }
  },
  {
    "id": 98280419,
    "name": "Cedarwood Village Dog Park",
    "latitude": 41.1358542,
    "longitude": -81.5523149,
    "state": "Ohio",
    "stateAbbr": "OH",
    "tags": {
      "leisure": "dog_park",
      "name": "Cedarwood Village Dog Park"
    }
  },
  {
    "id": 98280438,
    "name": "Akron Dog Park",
    "latitude": 41.1050666,
    "longitude": -81.530271,
    "state": "Ohio",
    "stateAbbr": "OH",
    "tags": {
      "addr:city": "Akron",
      "addr:housenumber": "499",
      "addr:postcode": "44310",
      "addr:street": "Memorial Parkway",
      "leisure": "dog_park",
      "name": "Akron Dog Park",
      "operator": "Better Akron Recreation for Canines",
      "website": "https://www.akrondogpark.org/"
    }
  },
  {
    "id": 196263570,
    "name": "Bark Park",
    "latitude": 39.3454706,
    "longitude": -84.4017281,
    "state": "Ohio",
    "stateAbbr": "OH",
    "tags": {
      "barrier": "fence",
      "leisure": "dog_park",
      "name": "Bark Park"
    }
  },
  {
    "id": 204065569,
    "name": "Wiggly Field Dog Park",
    "latitude": 39.358668,
    "longitude": -84.3485289,
    "state": "Ohio",
    "stateAbbr": "OH",
    "tags": {
      "leisure": "dog_park",
      "name": "Wiggly Field Dog Park"
    }
  },
  {
    "id": 205868870,
    "name": "Holly's Dog Park",
    "latitude": 39.39363,
    "longitude": -84.5152493,
    "state": "Ohio",
    "stateAbbr": "OH",
    "tags": {
      "barrier": "fence",
      "leisure": "dog_park",
      "name": "Holly's Dog Park"
    }
  },
  {
    "id": 210618273,
    "name": "Dog Park",
    "latitude": 39.800247,
    "longitude": -84.0417705,
    "state": "Ohio",
    "stateAbbr": "OH",
    "tags": {
      "area": "yes",
      "leisure": "dog_park"
    }
  },
  {
    "id": 220206665,
    "name": "Bark Park",
    "latitude": 39.189633,
    "longitude": -84.198503,
    "state": "Ohio",
    "stateAbbr": "OH",
    "tags": {
      "barrier": "fence",
      "leisure": "dog_park",
      "name": "Bark Park"
    }
  },
  {
    "id": 230171969,
    "name": "K-9 Field of Dreams Dog Park",
    "latitude": 41.0330223,
    "longitude": -83.5616442,
    "state": "Ohio",
    "stateAbbr": "OH",
    "tags": {
      "leisure": "dog_park",
      "name": "K-9 Field of Dreams Dog Park"
    }
  },
  {
    "id": 249176862,
    "name": "Kitty Hawk/Menlo Dog Park",
    "latitude": 39.8391725,
    "longitude": -84.1263518,
    "state": "Ohio",
    "stateAbbr": "OH",
    "tags": {
      "addr:city": "Huber Heights",
      "addr:housenumber": "5210",
      "addr:postcode": "45424",
      "addr:state": "OH",
      "addr:street": "Sabra Avenue",
      "ele": "277",
      "gnis:feature_id": "1061913",
      "leisure": "dog_park",
      "name": "Kitty Hawk/Menlo Dog Park",
      "operator": "City of Huber Heights",
      "operator:type": "government"
    }
  },
  {
    "id": 255429380,
    "name": "Oakwood Dog Park",
    "latitude": 39.7322397,
    "longitude": -84.1670321,
    "state": "Ohio",
    "stateAbbr": "OH",
    "tags": {
      "addr:city": "Oakwood",
      "addr:housenumber": "286",
      "addr:postcode": "45419",
      "addr:street": "Shafor Boulevard",
      "leisure": "dog_park",
      "name": "Oakwood Dog Park"
    }
  },
  {
    "id": 256607344,
    "name": "Ida Juris Bennett Dog Park",
    "latitude": 39.4182609,
    "longitude": -84.2024163,
    "state": "Ohio",
    "stateAbbr": "OH",
    "tags": {
      "leisure": "dog_park",
      "name": "Ida Juris Bennett Dog Park",
      "website": "https://www.lebanonohio.gov/index.aspx?nid=219"
    }
  },
  {
    "id": 264697719,
    "name": "Off Leash Dog Park",
    "latitude": 41.4118746,
    "longitude": -82.634414,
    "state": "Ohio",
    "stateAbbr": "OH",
    "tags": {
      "leisure": "dog_park",
      "name": "Off Leash Dog Park"
    }
  },
  {
    "id": 280006169,
    "name": "Dog Park",
    "latitude": 39.1087241,
    "longitude": -84.517846,
    "state": "Ohio",
    "stateAbbr": "OH",
    "tags": {
      "barrier": "fence",
      "leisure": "dog_park",
      "surface": "paved",
      "wikimedia_commons": "File:Washington Park Dog Park (42707050).jpeg"
    }
  },
  {
    "id": 280409166,
    "name": "Spindler Dog Park",
    "latitude": 39.9968539,
    "longitude": -83.1671156,
    "state": "Ohio",
    "stateAbbr": "OH",
    "tags": {
      "addr:city": "Hilliard",
      "addr:housenumber": "2121",
      "addr:postcode": "43026",
      "addr:street": "Spindler Road",
      "leisure": "dog_park",
      "name": "Spindler Dog Park",
      "note": "Hours: 7:00am to 11:00pm (Daily)",
      "website": "https://www.columbus.gov/ColumbusDogParks/",
      "wheelchair": "yes"
    }
  },
  {
    "id": 286204663,
    "name": "Fido Field",
    "latitude": 39.1061395,
    "longitude": -84.5046241,
    "state": "Ohio",
    "stateAbbr": "OH",
    "tags": {
      "leisure": "dog_park",
      "name": "Fido Field"
    }
  },
  {
    "id": 321872415,
    "name": "Keyser Dog Park",
    "latitude": 41.1684464,
    "longitude": -81.5316233,
    "state": "Ohio",
    "stateAbbr": "OH",
    "tags": {
      "leisure": "dog_park",
      "name": "Keyser Dog Park"
    }
  },
  {
    "id": 368173981,
    "name": "Rocky Fork Metro Park Dog Park",
    "latitude": 40.1127666,
    "longitude": -82.7989708,
    "state": "Ohio",
    "stateAbbr": "OH",
    "tags": {
      "leisure": "dog_park",
      "name": "Rocky Fork Metro Park Dog Park",
      "natural": "grass"
    }
  },
  {
    "id": 383709197,
    "name": "Dog Park",
    "latitude": 40.0573322,
    "longitude": -83.1276423,
    "state": "Ohio",
    "stateAbbr": "OH",
    "tags": {
      "landuse": "grass",
      "leisure": "dog_park"
    }
  },
  {
    "id": 384578517,
    "name": "Dog Park",
    "latitude": 39.5740607,
    "longitude": -84.7550483,
    "state": "Ohio",
    "stateAbbr": "OH",
    "tags": {
      "leisure": "dog_park",
      "natural": "beach",
      "supervised": "no"
    }
  },
  {
    "id": 408453317,
    "name": "Canine Meadows",
    "latitude": 41.5784115,
    "longitude": -81.3223614,
    "state": "Ohio",
    "stateAbbr": "OH",
    "tags": {
      "leisure": "dog_park",
      "name": "Canine Meadows",
      "operator": "Lake Metroparks"
    }
  },
  {
    "id": 426429098,
    "name": "Dog Park",
    "latitude": 40.0934189,
    "longitude": -83.0771471,
    "state": "Ohio",
    "stateAbbr": "OH",
    "tags": {
      "leisure": "dog_park",
      "wheelchair": "limited"
    }
  },
  {
    "id": 430062416,
    "name": "Lakewood Dog Park",
    "latitude": 41.4779511,
    "longitude": -81.8271231,
    "state": "Ohio",
    "stateAbbr": "OH",
    "tags": {
      "barrier": "fence",
      "leisure": "dog_park",
      "name": "Lakewood Dog Park"
    }
  },
  {
    "id": 439376516,
    "name": "Taps & Tails",
    "latitude": 41.4803616,
    "longitude": -81.6975075,
    "state": "Ohio",
    "stateAbbr": "OH",
    "tags": {
      "addr:city": "Cleveland",
      "addr:housenumber": "1901",
      "addr:postcode": "44113",
      "addr:state": "OH",
      "addr:street": "Train Avenue",
      "leisure": "dog_park",
      "name": "Taps & Tails",
      "website": "https://www.tapsandtailsdogbar.com/"
    }
  },
  {
    "id": 452299333,
    "name": "Dog Park",
    "latitude": 41.3532395,
    "longitude": -83.6147222,
    "state": "Ohio",
    "stateAbbr": "OH",
    "tags": {
      "access": "yes",
      "leisure": "dog_park"
    }
  },
  {
    "id": 454034847,
    "name": "Gambier Dog Park",
    "latitude": 40.371302,
    "longitude": -82.3890765,
    "state": "Ohio",
    "stateAbbr": "OH",
    "tags": {
      "dog": "yes",
      "leisure": "dog_park",
      "name": "Gambier Dog Park",
      "operator": "Village of Gambier"
    }
  },
  {
    "id": 468786210,
    "name": "Bark Park",
    "latitude": 39.6435601,
    "longitude": -84.236795,
    "state": "Ohio",
    "stateAbbr": "OH",
    "tags": {
      "leisure": "dog_park",
      "name": "Bark Park"
    }
  },
  {
    "id": 470405945,
    "name": "Dog Park",
    "latitude": 39.1315228,
    "longitude": -84.355524,
    "state": "Ohio",
    "stateAbbr": "OH",
    "tags": {
      "leisure": "dog_park"
    }
  },
  {
    "id": 472457457,
    "name": "Veterans Park Dog Park",
    "latitude": 40.8634932,
    "longitude": -81.3512709,
    "state": "Ohio",
    "stateAbbr": "OH",
    "tags": {
      "access": "yes",
      "addr:city": "Canton",
      "addr:housenumber": "1714",
      "addr:postcode": "44721",
      "addr:state": "OH",
      "addr:street": "Schneider Street Northeast",
      "description": "The dog park is on the east side of the park, along a group of trees that provides shade to park goers and their dogs. This free-access dog park is open year-round and has a 1.5-acre section for small dogs (under 30 lbs) and a 2.5-acre area for larger dog",
      "dog": "yes",
      "leisure": "dog_park",
      "name": "Veterans Park Dog Park",
      "operator": "Plain Township Parks & Recreation Department",
      "operator:type": "government",
      "phone": "+1-330-492-4689",
      "website": "https://www.plaintownship.com/parkveterans.aspx"
    }
  },
  {
    "id": 475394322,
    "name": "Eastlake Doggie Park",
    "latitude": 41.6637914,
    "longitude": -81.4273935,
    "state": "Ohio",
    "stateAbbr": "OH",
    "tags": {
      "alt_name": "War Dog Memorial Park",
      "leisure": "dog_park",
      "name": "Eastlake Doggie Park"
    }
  },
  {
    "id": 477103578,
    "name": "Easton Pointe Dog Park",
    "latitude": 40.0255667,
    "longitude": -82.9207348,
    "state": "Ohio",
    "stateAbbr": "OH",
    "tags": {
      "leisure": "dog_park",
      "name": "Easton Pointe Dog Park"
    }
  },
  {
    "id": 479935568,
    "name": "Northside Bark",
    "latitude": 39.5168491,
    "longitude": -84.741151,
    "state": "Ohio",
    "stateAbbr": "OH",
    "tags": {
      "addr:city": "Oxford",
      "addr:housenumber": "5160",
      "addr:postcode": "45056",
      "addr:state": "OH",
      "addr:street": "Morning Sun Road",
      "leisure": "dog_park",
      "name": "Northside Bark",
      "website": "https://www.cityofoxford.org/government/departments/facilities.php"
    }
  },
  {
    "id": 481694047,
    "name": "Dog Park",
    "latitude": 40.0261756,
    "longitude": -82.9155033,
    "state": "Ohio",
    "stateAbbr": "OH",
    "tags": {
      "leisure": "dog_park",
      "name": "Dog Park"
    }
  },
  {
    "id": 487385230,
    "name": "Dog Park",
    "latitude": 40.5521898,
    "longitude": -82.8294325,
    "state": "Ohio",
    "stateAbbr": "OH",
    "tags": {
      "leisure": "dog_park",
      "source": "mapillary",
      "wheelchair": "yes"
    }
  },
  {
    "id": 502960886,
    "name": "Dog Park",
    "latitude": 40.7647843,
    "longitude": -82.5939062,
    "state": "Ohio",
    "stateAbbr": "OH",
    "tags": {
      "leisure": "dog_park",
      "source": "bing"
    }
  },
  {
    "id": 507624533,
    "name": "Dog Park",
    "latitude": 40.0971746,
    "longitude": -83.0776901,
    "state": "Ohio",
    "stateAbbr": "OH",
    "tags": {
      "leisure": "dog_park",
      "wheelchair": "limited"
    }
  },
  {
    "id": 510008346,
    "name": "Dog Park",
    "latitude": 41.0733775,
    "longitude": -80.7763504,
    "state": "Ohio",
    "stateAbbr": "OH",
    "tags": {
      "leisure": "dog_park"
    }
  },
  {
    "id": 545286322,
    "name": "Pizzurro Dog Park",
    "latitude": 39.996364,
    "longitude": -82.8593581,
    "state": "Ohio",
    "stateAbbr": "OH",
    "tags": {
      "leisure": "dog_park",
      "name": "Pizzurro Dog Park"
    }
  },
  {
    "id": 545403485,
    "name": "Dog Park",
    "latitude": 40.1084469,
    "longitude": -82.9358182,
    "state": "Ohio",
    "stateAbbr": "OH",
    "tags": {
      "leisure": "dog_park"
    }
  },
  {
    "id": 545497965,
    "name": "North Hills Dog Park",
    "latitude": 39.3161041,
    "longitude": -81.5075924,
    "state": "Ohio",
    "stateAbbr": "OH",
    "tags": {
      "leisure": "dog_park",
      "name": "North Hills Dog Park"
    }
  },
  {
    "id": 547902392,
    "name": "Dog Park",
    "latitude": 40.0986209,
    "longitude": -82.8318855,
    "state": "Ohio",
    "stateAbbr": "OH",
    "tags": {
      "leisure": "dog_park"
    }
  },
  {
    "id": 549536043,
    "name": "Dog Park",
    "latitude": 41.4229,
    "longitude": -81.3978374,
    "state": "Ohio",
    "stateAbbr": "OH",
    "tags": {
      "leisure": "dog_park"
    }
  },
  {
    "id": 551174029,
    "name": "Wilmington Dog Park",
    "latitude": 39.4446126,
    "longitude": -83.8058812,
    "state": "Ohio",
    "stateAbbr": "OH",
    "tags": {
      "leisure": "dog_park",
      "name": "Wilmington Dog Park"
    }
  },
  {
    "id": 553863514,
    "name": "Dog Park",
    "latitude": 41.5371658,
    "longitude": -81.5318967,
    "state": "Ohio",
    "stateAbbr": "OH",
    "tags": {
      "access": "yes",
      "leisure": "dog_park"
    }
  },
  {
    "id": 556384437,
    "name": "Delaware City Dog Park",
    "latitude": 40.2913343,
    "longitude": -83.0398572,
    "state": "Ohio",
    "stateAbbr": "OH",
    "tags": {
      "leisure": "dog_park",
      "name": "Delaware City Dog Park"
    }
  },
  {
    "id": 562299892,
    "name": "Dog Park",
    "latitude": 41.3193769,
    "longitude": -81.4171003,
    "state": "Ohio",
    "stateAbbr": "OH",
    "tags": {
      "leisure": "dog_park"
    }
  },
  {
    "id": 568554812,
    "name": "Dog Park",
    "latitude": 39.9030777,
    "longitude": -82.9196319,
    "state": "Ohio",
    "stateAbbr": "OH",
    "tags": {
      "leisure": "dog_park"
    }
  },
  {
    "id": 571505473,
    "name": "Bow Wow Beach",
    "latitude": 41.1945561,
    "longitude": -81.4162056,
    "state": "Ohio",
    "stateAbbr": "OH",
    "tags": {
      "leisure": "dog_park",
      "name": "Bow Wow Beach",
      "surface": "sand"
    }
  },
  {
    "id": 574825286,
    "name": "Dog Park",
    "latitude": 39.9518149,
    "longitude": -83.0076489,
    "state": "Ohio",
    "stateAbbr": "OH",
    "tags": {
      "leisure": "dog_park"
    }
  },
  {
    "id": 574825287,
    "name": "Dog Park",
    "latitude": 39.9512555,
    "longitude": -83.0073185,
    "state": "Ohio",
    "stateAbbr": "OH",
    "tags": {
      "leisure": "dog_park"
    }
  },
  {
    "id": 575616022,
    "name": "Dog Park",
    "latitude": 41.475641,
    "longitude": -81.7234454,
    "state": "Ohio",
    "stateAbbr": "OH",
    "tags": {
      "leisure": "dog_park"
    }
  },
  {
    "id": 583321184,
    "name": "Dog Park",
    "latitude": 41.6404196,
    "longitude": -83.5373489,
    "state": "Ohio",
    "stateAbbr": "OH",
    "tags": {
      "access": "yes",
      "addr:city": "Toledo",
      "addr:housenumber": "111",
      "addr:postcode": "43602",
      "addr:state": "OH",
      "addr:street": "Ottawa Street",
      "dog": "yes",
      "leisure": "dog_park",
      "operator": "Metroparks Toledo",
      "website": "https://metroparkstoledo.com/features-and-rentals/off-leash-dog-area/"
    }
  },
  {
    "id": 585252512,
    "name": "Dog Park",
    "latitude": 41.2935699,
    "longitude": -81.3220465,
    "state": "Ohio",
    "stateAbbr": "OH",
    "tags": {
      "leisure": "dog_park"
    }
  },
  {
    "id": 589996872,
    "name": "Dog Park",
    "latitude": 40.0670538,
    "longitude": -82.5375751,
    "state": "Ohio",
    "stateAbbr": "OH",
    "tags": {
      "leisure": "dog_park"
    }
  },
  {
    "id": 599025275,
    "name": "Dog Park",
    "latitude": 40.090404,
    "longitude": -82.8893903,
    "state": "Ohio",
    "stateAbbr": "OH",
    "tags": {
      "leisure": "dog_park"
    }
  },
  {
    "id": 607981409,
    "name": "Dog Park",
    "latitude": 41.0230064,
    "longitude": -81.611807,
    "state": "Ohio",
    "stateAbbr": "OH",
    "tags": {
      "barrier": "fence",
      "leisure": "dog_park"
    }
  },
  {
    "id": 616486986,
    "name": "Dog Park",
    "latitude": 39.2507945,
    "longitude": -84.3903782,
    "state": "Ohio",
    "stateAbbr": "OH",
    "tags": {
      "leisure": "dog_park"
    }
  },
  {
    "id": 619833475,
    "name": "Kaufman Dog Park",
    "latitude": 40.6016646,
    "longitude": -83.0681038,
    "state": "Ohio",
    "stateAbbr": "OH",
    "tags": {
      "leisure": "dog_park",
      "name": "Kaufman Dog Park"
    }
  },
  {
    "id": 621892498,
    "name": "Dog Park",
    "latitude": 41.1802746,
    "longitude": -81.4845023,
    "state": "Ohio",
    "stateAbbr": "OH",
    "tags": {
      "leisure": "dog_park"
    }
  },
  {
    "id": 633781907,
    "name": "Wolf Run Dog Park",
    "latitude": 40.3969709,
    "longitude": -82.4297078,
    "state": "Ohio",
    "stateAbbr": "OH",
    "tags": {
      "fence_type": "chain_link",
      "leisure": "dog_park",
      "name": "Wolf Run Dog Park"
    }
  },
  {
    "id": 663563630,
    "name": "Dog Park",
    "latitude": 40.0967707,
    "longitude": -82.8220166,
    "state": "Ohio",
    "stateAbbr": "OH",
    "tags": {
      "leisure": "dog_park"
    }
  },
  {
    "id": 666214788,
    "name": "Dog Park",
    "latitude": 40.5241791,
    "longitude": -84.5742828,
    "state": "Ohio",
    "stateAbbr": "OH",
    "tags": {
      "leisure": "dog_park"
    }
  },
  {
    "id": 666477951,
    "name": "Dog Park",
    "latitude": 40.063891,
    "longitude": -82.8599713,
    "state": "Ohio",
    "stateAbbr": "OH",
    "tags": {
      "leisure": "dog_park"
    }
  },
  {
    "id": 673990824,
    "name": "Dog Park",
    "latitude": 39.7646692,
    "longitude": -84.0691914,
    "state": "Ohio",
    "stateAbbr": "OH",
    "tags": {
      "barrier": "fence",
      "leisure": "dog_park",
      "lit": "no",
      "opening_hours": "24/7",
      "wheelchair": "no"
    }
  },
  {
    "id": 702306753,
    "name": "Mentor Dog Park",
    "latitude": 41.6902052,
    "longitude": -81.319907,
    "state": "Ohio",
    "stateAbbr": "OH",
    "tags": {
      "access": "yes",
      "addr:city": "Mentor",
      "addr:postcode": "44060",
      "addr:state": "OH",
      "leisure": "dog_park",
      "name": "Mentor Dog Park",
      "opening_hours": "sunrise-sunset",
      "operator": "City of Mentor",
      "operator:type": "public",
      "wheelchair": "limited"
    }
  },
  {
    "id": 710536772,
    "name": "Simmonds Family Dog Park",
    "latitude": 39.2277184,
    "longitude": -84.7075275,
    "state": "Ohio",
    "stateAbbr": "OH",
    "tags": {
      "addr:city": "Cleves",
      "addr:housenumber": "8715",
      "addr:postcode": "45002",
      "addr:state": "OH",
      "addr:street": "Hamilton Cleves Pike Road",
      "leisure": "dog_park",
      "name": "Simmonds Family Dog Park",
      "operator": "Great Parks of Hamilton County",
      "operator:type": "public",
      "operator:wikidata": "Q19863721",
      "website": "https://www.greatparks.org/miami-whitewater-forest/simmonds-family-dog-park"
    }
  },
  {
    "id": 726132069,
    "name": "Dog Park",
    "latitude": 41.5705321,
    "longitude": -83.6778191,
    "state": "Ohio",
    "stateAbbr": "OH",
    "tags": {
      "leisure": "dog_park"
    }
  },
  {
    "id": 729154433,
    "name": "Fostoria Dog Park",
    "latitude": 41.1403259,
    "longitude": -83.4183096,
    "state": "Ohio",
    "stateAbbr": "OH",
    "tags": {
      "leisure": "dog_park",
      "name": "Fostoria Dog Park"
    }
  },
  {
    "id": 732799292,
    "name": "FurField",
    "latitude": 39.3224475,
    "longitude": -84.5990479,
    "state": "Ohio",
    "stateAbbr": "OH",
    "tags": {
      "leisure": "dog_park",
      "name": "FurField"
    }
  },
  {
    "id": 738297791,
    "name": "Dog Park",
    "latitude": 40.0561608,
    "longitude": -83.0475005,
    "state": "Ohio",
    "stateAbbr": "OH",
    "tags": {
      "access": "yes",
      "leisure": "dog_park",
      "wheelchair": "limited"
    }
  },
  {
    "id": 739437325,
    "name": "Small Dog Run",
    "latitude": 40.0948352,
    "longitude": -83.1956432,
    "state": "Ohio",
    "stateAbbr": "OH",
    "tags": {
      "leisure": "dog_park",
      "name": "Small Dog Run"
    }
  },
  {
    "id": 741756426,
    "name": "Dog Park",
    "latitude": 39.1698859,
    "longitude": -84.2666048,
    "state": "Ohio",
    "stateAbbr": "OH",
    "tags": {
      "access": "customers",
      "leisure": "dog_park"
    }
  },
  {
    "id": 762705951,
    "name": "Spring & Fourth Dog Park",
    "latitude": 39.9666359,
    "longitude": -82.9966317,
    "state": "Ohio",
    "stateAbbr": "OH",
    "tags": {
      "leisure": "dog_park",
      "name": "Spring & Fourth Dog Park"
    }
  },
  {
    "id": 766790060,
    "name": "Brunswick Dog Park",
    "latitude": 41.2428935,
    "longitude": -81.8281156,
    "state": "Ohio",
    "stateAbbr": "OH",
    "tags": {
      "addr:city": "Brunswick",
      "addr:state": "OH",
      "addr:street": "Cross Creek Drive",
      "leisure": "dog_park",
      "name": "Brunswick Dog Park",
      "note": "Either not mapped or an error on the city website states the land for the park is 17.0 acres, but 0.17 acres is the off leash dog park. https://www.brunswick.oh.us/parks/brunswicks-parks/"
    }
  },
  {
    "id": 773634933,
    "name": "Dog Park",
    "latitude": 41.0396678,
    "longitude": -81.739252,
    "state": "Ohio",
    "stateAbbr": "OH",
    "tags": {
      "leisure": "dog_park"
    }
  },
  {
    "id": 817024487,
    "name": "Dog Park",
    "latitude": 41.2377912,
    "longitude": -81.3554989,
    "state": "Ohio",
    "stateAbbr": "OH",
    "tags": {
      "leisure": "dog_park"
    }
  },
  {
    "id": 848957401,
    "name": "Fitzsimmons Family Dog Park",
    "latitude": 40.0699294,
    "longitude": -80.7098462,
    "state": "Ohio",
    "stateAbbr": "OH",
    "tags": {
      "leisure": "dog_park",
      "name": "Fitzsimmons Family Dog Park"
    }
  },
  {
    "id": 868080971,
    "name": "Dog Park",
    "latitude": 41.0182664,
    "longitude": -81.3628426,
    "state": "Ohio",
    "stateAbbr": "OH",
    "tags": {
      "check_date": "2025-09-29",
      "leisure": "dog_park"
    }
  },
  {
    "id": 869972463,
    "name": "Dog Park",
    "latitude": 39.5829694,
    "longitude": -84.1325283,
    "state": "Ohio",
    "stateAbbr": "OH",
    "tags": {
      "leisure": "dog_park"
    }
  },
  {
    "id": 870503497,
    "name": "Dog Park",
    "latitude": 39.3969629,
    "longitude": -84.573515,
    "state": "Ohio",
    "stateAbbr": "OH",
    "tags": {
      "leisure": "dog_park"
    }
  },
  {
    "id": 871823498,
    "name": "Dog Park",
    "latitude": 39.2729978,
    "longitude": -84.3252668,
    "state": "Ohio",
    "stateAbbr": "OH",
    "tags": {
      "access": "private",
      "leisure": "dog_park"
    }
  },
  {
    "id": 874758869,
    "name": "Smith Field Dog Park",
    "latitude": 41.8820705,
    "longitude": -80.8033236,
    "state": "Ohio",
    "stateAbbr": "OH",
    "tags": {
      "addr:city": "Ashtabula",
      "addr:postcode": "44004",
      "addr:state": "OH",
      "leisure": "dog_park",
      "name": "Smith Field Dog Park",
      "operator": "City of Ashtabula",
      "operator:type": "public"
    }
  },
  {
    "id": 884250078,
    "name": "Dog Park",
    "latitude": 39.6209766,
    "longitude": -84.2044492,
    "state": "Ohio",
    "stateAbbr": "OH",
    "tags": {
      "access": "private",
      "leisure": "dog_park",
      "wheelchair": "no"
    }
  },
  {
    "id": 933384318,
    "name": "Dog Park",
    "latitude": 39.6583513,
    "longitude": -84.0924577,
    "state": "Ohio",
    "stateAbbr": "OH",
    "tags": {
      "leisure": "dog_park"
    }
  },
  {
    "id": 941111524,
    "name": "Geneva Dog Park",
    "latitude": 41.8024737,
    "longitude": -80.9430892,
    "state": "Ohio",
    "stateAbbr": "OH",
    "tags": {
      "addr:city": "Geneva",
      "addr:postcode": "44041",
      "addr:state": "OH",
      "leisure": "dog_park",
      "name": "Geneva Dog Park",
      "operator": "City of Geneva",
      "operator:type": "public"
    }
  },
  {
    "id": 960851606,
    "name": "Dog Park",
    "latitude": 39.5469428,
    "longitude": -84.2723149,
    "state": "Ohio",
    "stateAbbr": "OH",
    "tags": {
      "leisure": "dog_park"
    }
  },
  {
    "id": 960948410,
    "name": "Dog Park",
    "latitude": 40.1471555,
    "longitude": -82.9721224,
    "state": "Ohio",
    "stateAbbr": "OH",
    "tags": {
      "leisure": "dog_park"
    }
  },
  {
    "id": 962662414,
    "name": "Dog Park",
    "latitude": 41.4962308,
    "longitude": -81.7005419,
    "state": "Ohio",
    "stateAbbr": "OH",
    "tags": {
      "leisure": "dog_park"
    }
  },
  {
    "id": 963272948,
    "name": "Island Paws Dog Park",
    "latitude": 41.6333937,
    "longitude": -82.8327166,
    "state": "Ohio",
    "stateAbbr": "OH",
    "tags": {
      "leisure": "dog_park",
      "lit": "no",
      "name": "Island Paws Dog Park",
      "opening_hours": "sunrise-sunset"
    }
  },
  {
    "id": 969606389,
    "name": "Dog Park",
    "latitude": 40.0238921,
    "longitude": -82.5223596,
    "state": "Ohio",
    "stateAbbr": "OH",
    "tags": {
      "leisure": "dog_park"
    }
  },
  {
    "id": 975002114,
    "name": "Jerome Grand Paws Park",
    "latitude": 40.1202069,
    "longitude": -83.182776,
    "state": "Ohio",
    "stateAbbr": "OH",
    "tags": {
      "leisure": "dog_park",
      "name": "Jerome Grand Paws Park"
    }
  },
  {
    "id": 979398114,
    "name": "Dog Park",
    "latitude": 41.5060955,
    "longitude": -81.6141265,
    "state": "Ohio",
    "stateAbbr": "OH",
    "tags": {
      "leisure": "dog_park"
    }
  },
  {
    "id": 980417091,
    "name": "Dog Park",
    "latitude": 41.309719,
    "longitude": -81.8140279,
    "state": "Ohio",
    "stateAbbr": "OH",
    "tags": {
      "leisure": "dog_park"
    }
  },
  {
    "id": 981106058,
    "name": "Dog Park",
    "latitude": 41.5062167,
    "longitude": -81.6185482,
    "state": "Ohio",
    "stateAbbr": "OH",
    "tags": {
      "leisure": "dog_park"
    }
  },
  {
    "id": 988779569,
    "name": "Dog Park",
    "latitude": 39.622858,
    "longitude": -84.1211999,
    "state": "Ohio",
    "stateAbbr": "OH",
    "tags": {
      "leisure": "dog_park"
    }
  },
  {
    "id": 999284074,
    "name": "K-9 Coastline",
    "latitude": 41.4877974,
    "longitude": -81.7443217,
    "state": "Ohio",
    "stateAbbr": "OH",
    "tags": {
      "dog": "yes",
      "leisure": "dog_park",
      "name": "K-9 Coastline",
      "natural": "beach",
      "surface": "sand"
    }
  },
  {
    "id": 1033435742,
    "name": "Dog Park",
    "latitude": 39.2316782,
    "longitude": -84.7790451,
    "state": "Ohio",
    "stateAbbr": "OH",
    "tags": {
      "access": "private",
      "leisure": "dog_park"
    }
  },
  {
    "id": 1047001409,
    "name": "Wapakoneta Dog Park",
    "latitude": 40.5578509,
    "longitude": -84.1930452,
    "state": "Ohio",
    "stateAbbr": "OH",
    "tags": {
      "leisure": "dog_park",
      "name": "Wapakoneta Dog Park"
    }
  },
  {
    "id": 1050163988,
    "name": "Dog Park",
    "latitude": 40.8626771,
    "longitude": -81.5696789,
    "state": "Ohio",
    "stateAbbr": "OH",
    "tags": {
      "barrier": "fence",
      "leisure": "dog_park"
    }
  },
  {
    "id": 1051165643,
    "name": "Beachwood Dog Park",
    "latitude": 41.4785198,
    "longitude": -81.4967313,
    "state": "Ohio",
    "stateAbbr": "OH",
    "tags": {
      "addr:city": "Beachwood",
      "addr:housenumber": "25815",
      "addr:postcode": "44122",
      "addr:state": "OH",
      "addr:street": "Shaker Boulevard",
      "leisure": "dog_park",
      "name": "Beachwood Dog Park",
      "operator": "City of Beachwood",
      "operator:type": "public"
    }
  },
  {
    "id": 1056526113,
    "name": "Dog Park",
    "latitude": 40.9512213,
    "longitude": -81.2466635,
    "state": "Ohio",
    "stateAbbr": "OH",
    "tags": {
      "leisure": "dog_park"
    }
  },
  {
    "id": 1059982853,
    "name": "Dog Park",
    "latitude": 41.3677466,
    "longitude": -83.6465867,
    "state": "Ohio",
    "stateAbbr": "OH",
    "tags": {
      "access": "private",
      "addr:city": "Bowling Green",
      "addr:postcode": "43402",
      "addr:state": "OH",
      "description": "Summit Terrace residents are the only permitted users of this dog park.\nSeparated into Small Paws Park (North) and Large Paws Park (South)",
      "leisure": "dog_park",
      "operator": "Summit Terrace",
      "operator:type": "private"
    }
  },
  {
    "id": 1068221508,
    "name": "Bark Park",
    "latitude": 40.2429987,
    "longitude": -83.3748964,
    "state": "Ohio",
    "stateAbbr": "OH",
    "tags": {
      "access": "yes",
      "addr:city": "Marysville",
      "addr:housenumber": "455",
      "addr:postcode": "43040",
      "addr:state": "OH",
      "addr:street": "North Maple Street",
      "leisure": "dog_park",
      "name": "Bark Park",
      "website": "https://marysvilleohio.org/Facilities/Facility/Details/Bark-Park-22"
    }
  },
  {
    "id": 1073382857,
    "name": "Dog Park",
    "latitude": 39.4348243,
    "longitude": -81.4531846,
    "state": "Ohio",
    "stateAbbr": "OH",
    "tags": {
      "leisure": "dog_park"
    }
  },
  {
    "id": 1074560074,
    "name": "Dog Park",
    "latitude": 41.242897,
    "longitude": -81.1785965,
    "state": "Ohio",
    "stateAbbr": "OH",
    "tags": {
      "leisure": "dog_park",
      "wheelchair": "limited"
    }
  },
  {
    "id": 1075816201,
    "name": "Dog Park",
    "latitude": 41.490488,
    "longitude": -83.3669694,
    "state": "Ohio",
    "stateAbbr": "OH",
    "tags": {
      "barrier": "fence",
      "leisure": "dog_park"
    }
  },
  {
    "id": 1085422960,
    "name": "Small Dog Park",
    "latitude": 41.1501008,
    "longitude": -81.1465125,
    "state": "Ohio",
    "stateAbbr": "OH",
    "tags": {
      "leisure": "dog_park",
      "name": "Small Dog Park"
    }
  },
  {
    "id": 1086731937,
    "name": "Dog Park",
    "latitude": 41.1466358,
    "longitude": -81.8574717,
    "state": "Ohio",
    "stateAbbr": "OH",
    "tags": {
      "leisure": "dog_park"
    }
  },
  {
    "id": 1087490746,
    "name": "Marge Hartman's Paws Town",
    "latitude": 41.0181609,
    "longitude": -80.6529083,
    "state": "Ohio",
    "stateAbbr": "OH",
    "tags": {
      "leisure": "dog_park",
      "name": "Marge Hartman's Paws Town"
    }
  },
  {
    "id": 1090358271,
    "name": "Dog Park",
    "latitude": 40.2647347,
    "longitude": -83.3658147,
    "state": "Ohio",
    "stateAbbr": "OH",
    "tags": {
      "leisure": "dog_park",
      "wheelchair": "yes"
    }
  },
  {
    "id": 1092473328,
    "name": "Bark Park",
    "latitude": 39.7155314,
    "longitude": -82.9908898,
    "state": "Ohio",
    "stateAbbr": "OH",
    "tags": {
      "leisure": "dog_park",
      "name": "Bark Park"
    }
  },
  {
    "id": 1092572539,
    "name": "Dog Park",
    "latitude": 39.9689016,
    "longitude": -81.9034932,
    "state": "Ohio",
    "stateAbbr": "OH",
    "tags": {
      "brand": "Love's",
      "brand:wikidata": "Q1872496",
      "leisure": "dog_park"
    }
  },
  {
    "id": 1097839413,
    "name": "Dog Park",
    "latitude": 38.4135287,
    "longitude": -81.8323585,
    "state": "Ohio",
    "stateAbbr": "OH",
    "tags": {
      "leisure": "dog_park"
    }
  },
  {
    "id": 1105301657,
    "name": "Dog Park",
    "latitude": 39.9629022,
    "longitude": -81.9931543,
    "state": "Ohio",
    "stateAbbr": "OH",
    "tags": {
      "leisure": "dog_park"
    }
  },
  {
    "id": 1112763886,
    "name": "Dog Park",
    "latitude": 40.003846,
    "longitude": -82.7897942,
    "state": "Ohio",
    "stateAbbr": "OH",
    "tags": {
      "access": "private",
      "leisure": "dog_park"
    }
  },
  {
    "id": 1119409881,
    "name": "BrewDog Dog Park",
    "latitude": 39.8461553,
    "longitude": -82.8260813,
    "state": "Ohio",
    "stateAbbr": "OH",
    "tags": {
      "access": "customers",
      "leisure": "dog_park",
      "name": "BrewDog Dog Park",
      "operator": "BrewDog Taproom"
    }
  },
  {
    "id": 1120637204,
    "name": "Dog Park",
    "latitude": 38.4446443,
    "longitude": -81.9975834,
    "state": "Ohio",
    "stateAbbr": "OH",
    "tags": {
      "leisure": "dog_park"
    }
  },
  {
    "id": 1124492055,
    "name": "Dog Park",
    "latitude": 39.8600507,
    "longitude": -82.8944566,
    "state": "Ohio",
    "stateAbbr": "OH",
    "tags": {
      "leisure": "dog_park",
      "operator": "Groveport Senior Village"
    }
  },
  {
    "id": 1124493112,
    "name": "Dog Park",
    "latitude": 39.8262844,
    "longitude": -82.9504572,
    "state": "Ohio",
    "stateAbbr": "OH",
    "tags": {
      "leisure": "dog_park",
      "operator": "Steeplechase Village"
    }
  },
  {
    "id": 1124493113,
    "name": "Dog Park",
    "latitude": 39.8259805,
    "longitude": -82.9473316,
    "state": "Ohio",
    "stateAbbr": "OH",
    "tags": {
      "leisure": "dog_park",
      "operator": "Steeplechase Village"
    }
  },
  {
    "id": 1125656372,
    "name": "Dog Park",
    "latitude": 41.377696,
    "longitude": -82.2260703,
    "state": "Ohio",
    "stateAbbr": "OH",
    "tags": {
      "leisure": "dog_park"
    }
  },
  {
    "id": 1133889168,
    "name": "Dog Park",
    "latitude": 39.8441551,
    "longitude": -82.8505119,
    "state": "Ohio",
    "stateAbbr": "OH",
    "tags": {
      "barrier": "fence",
      "fence_type": "chain_link",
      "leisure": "dog_park",
      "name": "Dog Park"
    }
  },
  {
    "id": 1149655222,
    "name": "Dog Park",
    "latitude": 39.7166218,
    "longitude": -82.6089516,
    "state": "Ohio",
    "stateAbbr": "OH",
    "tags": {
      "access": "yes",
      "leisure": "dog_park"
    }
  },
  {
    "id": 1152929020,
    "name": "Dog Park",
    "latitude": 40.638683,
    "longitude": -83.5720118,
    "state": "Ohio",
    "stateAbbr": "OH",
    "tags": {
      "leisure": "dog_park"
    }
  },
  {
    "id": 1153034165,
    "name": "Violet Township Dog Park",
    "latitude": 39.8922009,
    "longitude": -82.7459568,
    "state": "Ohio",
    "stateAbbr": "OH",
    "tags": {
      "leisure": "dog_park",
      "name": "Violet Township Dog Park",
      "operator": "Violet Township",
      "operator:type": "government"
    }
  },
  {
    "id": 1159656051,
    "name": "Dick Goddard Dog Park",
    "latitude": 40.9430619,
    "longitude": -81.4385317,
    "state": "Ohio",
    "stateAbbr": "OH",
    "tags": {
      "addr:city": "Uniontown",
      "addr:housenumber": "2520",
      "addr:postcode": "44685",
      "addr:state": "OH",
      "addr:street": "Wise Road",
      "leisure": "dog_park",
      "name": "Dick Goddard Dog Park"
    }
  },
  {
    "id": 1175995220,
    "name": "Dog Park",
    "latitude": 40.3980044,
    "longitude": -82.4403575,
    "state": "Ohio",
    "stateAbbr": "OH",
    "tags": {
      "access": "permissive",
      "dog": "yes",
      "leisure": "dog_park",
      "operator": "Park Hill Apartments",
      "operator:type": "private"
    }
  },
  {
    "id": 1176372494,
    "name": "Bark Park Offleash",
    "latitude": 39.8415538,
    "longitude": -84.1815831,
    "state": "Ohio",
    "stateAbbr": "OH",
    "tags": {
      "addr:city": "Dayton",
      "addr:housenumber": "6794",
      "addr:postcode": "45414",
      "addr:state": "OH",
      "addr:street": "Webster Street",
      "leisure": "dog_park",
      "name": "Bark Park Offleash",
      "website": "https://www.mcohio.org/departments/animal_resource_center/bark_park.php"
    }
  },
  {
    "id": 1178709882,
    "name": "Dog Park",
    "latitude": 41.1433814,
    "longitude": -81.4578761,
    "state": "Ohio",
    "stateAbbr": "OH",
    "tags": {
      "leisure": "dog_park"
    }
  },
  {
    "id": 1180300530,
    "name": "Dog Park",
    "latitude": 39.907213,
    "longitude": -83.4539432,
    "state": "Ohio",
    "stateAbbr": "OH",
    "tags": {
      "leisure": "dog_park"
    }
  },
  {
    "id": 1180487104,
    "name": "Dog Park",
    "latitude": 39.8368095,
    "longitude": -84.0519221,
    "state": "Ohio",
    "stateAbbr": "OH",
    "tags": {
      "leisure": "dog_park"
    }
  },
  {
    "id": 1186801543,
    "name": "Wooster Dog Park",
    "latitude": 40.7943983,
    "longitude": -81.9346836,
    "state": "Ohio",
    "stateAbbr": "OH",
    "tags": {
      "access": "yes",
      "addr:city": "Wooster",
      "addr:housenumber": "427",
      "addr:state": "OH",
      "addr:street": "Maple Street",
      "dog": "yes",
      "leisure": "dog_park",
      "name": "Wooster Dog Park"
    }
  },
  {
    "id": 1188769990,
    "name": "Hobson Dog Park",
    "latitude": 39.7721106,
    "longitude": -83.9905849,
    "state": "Ohio",
    "stateAbbr": "OH",
    "tags": {
      "leisure": "dog_park",
      "name": "Hobson Dog Park"
    }
  },
  {
    "id": 1194603292,
    "name": "Dog Park",
    "latitude": 41.0720242,
    "longitude": -81.5329612,
    "state": "Ohio",
    "stateAbbr": "OH",
    "tags": {
      "leisure": "dog_park"
    }
  },
  {
    "id": 1196627833,
    "name": "Dog Park",
    "latitude": 40.539381,
    "longitude": -84.4177609,
    "state": "Ohio",
    "stateAbbr": "OH",
    "tags": {
      "leisure": "dog_park"
    }
  },
  {
    "id": 1197734095,
    "name": "Dog Park",
    "latitude": 41.501978,
    "longitude": -81.5964537,
    "state": "Ohio",
    "stateAbbr": "OH",
    "tags": {
      "leisure": "dog_park"
    }
  },
  {
    "id": 1201553971,
    "name": "Dog Park",
    "latitude": 40.7672224,
    "longitude": -83.8156813,
    "state": "Ohio",
    "stateAbbr": "OH",
    "tags": {
      "addr:city": "Ada",
      "addr:state": "OH",
      "leisure": "dog_park"
    }
  },
  {
    "id": 1202878667,
    "name": "Dog Park",
    "latitude": 41.1549889,
    "longitude": -81.3361767,
    "state": "Ohio",
    "stateAbbr": "OH",
    "tags": {
      "leisure": "dog_park"
    }
  },
  {
    "id": 1204310164,
    "name": "Rick Matzelle Dog Park",
    "latitude": 41.4747579,
    "longitude": -81.6852372,
    "state": "Ohio",
    "stateAbbr": "OH",
    "tags": {
      "leisure": "dog_park",
      "name": "Rick Matzelle Dog Park",
      "note": "location approximate; imagery is outdated",
      "opening_hours": "08:00-sunset"
    }
  },
  {
    "id": 1205249316,
    "name": "Friends of Alum Creek Dog Park",
    "latitude": 40.2136768,
    "longitude": -82.974262,
    "state": "Ohio",
    "stateAbbr": "OH",
    "tags": {
      "leisure": "dog_park",
      "name": "Friends of Alum Creek Dog Park"
    }
  },
  {
    "id": 1227397507,
    "name": "Neiss Recreation Park for Dogs",
    "latitude": 41.1890722,
    "longitude": -80.978587,
    "state": "Ohio",
    "stateAbbr": "OH",
    "tags": {
      "access": "private",
      "leisure": "dog_park",
      "name": "Neiss Recreation Park for Dogs"
    }
  },
  {
    "id": 1234926668,
    "name": "Dog Park",
    "latitude": 41.5665251,
    "longitude": -83.6074225,
    "state": "Ohio",
    "stateAbbr": "OH",
    "tags": {
      "access": "private",
      "leisure": "dog_park"
    }
  },
  {
    "id": 1241866849,
    "name": "Treasure Barn Dog Park",
    "latitude": 39.4458924,
    "longitude": -84.3674678,
    "state": "Ohio",
    "stateAbbr": "OH",
    "tags": {
      "addr:city": "Monroe",
      "addr:housenumber": "230",
      "addr:postcode": "45050",
      "addr:state": "OH",
      "addr:street": "Seminary Drive",
      "leisure": "dog_park",
      "name": "Treasure Barn Dog Park"
    }
  },
  {
    "id": 1244779844,
    "name": "Dog Park",
    "latitude": 39.335657,
    "longitude": -82.0775379,
    "state": "Ohio",
    "stateAbbr": "OH",
    "tags": {
      "leisure": "dog_park"
    }
  },
  {
    "id": 1244779845,
    "name": "Dog Park",
    "latitude": 39.3352699,
    "longitude": -82.0772286,
    "state": "Ohio",
    "stateAbbr": "OH",
    "tags": {
      "leisure": "dog_park"
    }
  },
  {
    "id": 1258258694,
    "name": "Dog Park",
    "latitude": 39.91234,
    "longitude": -82.8410356,
    "state": "Ohio",
    "stateAbbr": "OH",
    "tags": {
      "leisure": "dog_park"
    }
  },
  {
    "id": 1258792922,
    "name": "Dog Park",
    "latitude": 39.8403236,
    "longitude": -83.0762811,
    "state": "Ohio",
    "stateAbbr": "OH",
    "tags": {
      "leisure": "dog_park"
    }
  },
  {
    "id": 1259144552,
    "name": "Dog Park",
    "latitude": 39.8709059,
    "longitude": -82.8327345,
    "state": "Ohio",
    "stateAbbr": "OH",
    "tags": {
      "leisure": "dog_park"
    }
  },
  {
    "id": 1266530197,
    "name": "Dog Park",
    "latitude": 39.9590919,
    "longitude": -83.0116583,
    "state": "Ohio",
    "stateAbbr": "OH",
    "tags": {
      "leisure": "dog_park"
    }
  },
  {
    "id": 1271544523,
    "name": "Dog Park",
    "latitude": 40.1756127,
    "longitude": -84.2602127,
    "state": "Ohio",
    "stateAbbr": "OH",
    "tags": {
      "access": "yes",
      "leisure": "dog_park",
      "operator": "City of Piqua"
    }
  },
  {
    "id": 1275452838,
    "name": "Riverwood Dog Park",
    "latitude": 41.1420257,
    "longitude": -81.5588701,
    "state": "Ohio",
    "stateAbbr": "OH",
    "tags": {
      "access": "private",
      "leisure": "dog_park",
      "name": "Riverwood Dog Park"
    }
  },
  {
    "id": 1285764462,
    "name": "MonRover Dog Park",
    "latitude": 39.4390085,
    "longitude": -84.3621185,
    "state": "Ohio",
    "stateAbbr": "OH",
    "tags": {
      "access": "yes",
      "addr:city": "Monroe",
      "addr:housenumber": "401",
      "addr:postcode": "45050",
      "addr:state": "OH",
      "addr:street": "Old Street",
      "leisure": "dog_park",
      "name": "MonRover Dog Park",
      "operator": "Parks and Recreation, City of Monroe",
      "operator:type": "government",
      "website": "https://www.monroeohio.org/403/MonRover-Dog-Park"
    }
  },
  {
    "id": 1290439743,
    "name": "Dog Park",
    "latitude": 39.1599746,
    "longitude": -84.4412986,
    "state": "Ohio",
    "stateAbbr": "OH",
    "tags": {
      "access": "private",
      "leisure": "dog_park"
    }
  },
  {
    "id": 1298210959,
    "name": "Dog Park",
    "latitude": 41.9134228,
    "longitude": -80.5698228,
    "state": "Ohio",
    "stateAbbr": "OH",
    "tags": {
      "barrier": "fence",
      "height": "1m",
      "leisure": "dog_park"
    }
  },
  {
    "id": 1312472520,
    "name": "Bark Park",
    "latitude": 39.1880739,
    "longitude": -84.2532302,
    "state": "Ohio",
    "stateAbbr": "OH",
    "tags": {
      "access": "private",
      "leisure": "dog_park",
      "name": "Bark Park"
    }
  },
  {
    "id": 1322962321,
    "name": "Dog Park",
    "latitude": 40.0648626,
    "longitude": -82.8437679,
    "state": "Ohio",
    "stateAbbr": "OH",
    "tags": {
      "access": "private",
      "leisure": "dog_park",
      "operator": "Clifton Park Apartments",
      "operator:type": "business",
      "private": "residents"
    }
  },
  {
    "id": 1323727679,
    "name": "Pawmyra Dog Park",
    "latitude": 39.377496,
    "longitude": -84.2726274,
    "state": "Ohio",
    "stateAbbr": "OH",
    "tags": {
      "addr:city": "Mason",
      "addr:housenumber": "3400",
      "addr:postcode": "45040",
      "addr:state": "OH",
      "addr:street": "Mason Morrow Milgrove Rd",
      "description": "Dog park with separate fenced areas for large dogs and small dogs.",
      "dog": "unleashed",
      "email": "parksandrec@masonoh.org",
      "leisure": "dog_park",
      "name": "Pawmyra Dog Park",
      "operator": "City of Mason Parks and Recreation",
      "operator:type": "government",
      "phone": "+1-513-229-8500",
      "source": "local knowledge",
      "website": "https://www.imaginemason.org/things-to-do/parks/pawmyra-dog-park/"
    }
  },
  {
    "id": 1332554719,
    "name": "Dog Park",
    "latitude": 41.4856476,
    "longitude": -81.7247103,
    "state": "Ohio",
    "stateAbbr": "OH",
    "tags": {
      "leisure": "dog_park"
    }
  },
  {
    "id": 1338980706,
    "name": "Dog Park",
    "latitude": 39.177264,
    "longitude": -84.289733,
    "state": "Ohio",
    "stateAbbr": "OH",
    "tags": {
      "leisure": "dog_park"
    }
  },
  {
    "id": 1343610348,
    "name": "Eaton Water Works Bark Park",
    "latitude": 39.7531639,
    "longitude": -84.6426612,
    "state": "Ohio",
    "stateAbbr": "OH",
    "tags": {
      "access": "yes",
      "dog": "unleashed",
      "leisure": "dog_park",
      "name": "Eaton Water Works Bark Park",
      "operator": "City of Eaton",
      "operator:type": "public"
    }
  },
  {
    "id": 1359378769,
    "name": "Glass City Dog Park",
    "latitude": 41.6151692,
    "longitude": -83.5907631,
    "state": "Ohio",
    "stateAbbr": "OH",
    "tags": {
      "access": "permit",
      "addr:city": "Toledo",
      "addr:housenumber": "1171",
      "addr:postcode": "43614",
      "addr:state": "oh",
      "addr:street": "Woodsdale",
      "dog": "unleashed",
      "email": "admin@glasscitydogpark.org",
      "fax": "+1-419-754-2670",
      "leisure": "dog_park",
      "name": "Glass City Dog Park",
      "operator": "Toledo Unleashed",
      "operator:type": "private_non_profit",
      "phone": "+1-567-307-0703",
      "website": "https://glasscitydogpark.org/"
    }
  },
  {
    "id": 1361781849,
    "name": "Large Dog Park",
    "latitude": 40.0045528,
    "longitude": -83.0901515,
    "state": "Ohio",
    "stateAbbr": "OH",
    "tags": {
      "access": "yes",
      "dog": "unleashed",
      "leisure": "dog_park",
      "name": "Large Dog Park"
    }
  },
  {
    "id": 1365840605,
    "name": "Dog Park",
    "latitude": 39.972421,
    "longitude": -83.0381903,
    "state": "Ohio",
    "stateAbbr": "OH",
    "tags": {
      "access": "yes",
      "leisure": "dog_park"
    }
  },
  {
    "id": 1368431600,
    "name": "Love's Dog Park",
    "latitude": 41.1733885,
    "longitude": -80.5689179,
    "state": "Ohio",
    "stateAbbr": "OH",
    "tags": {
      "access": "yes",
      "brand": "Love's",
      "brand:wikidata": "Q1872496",
      "leisure": "dog_park",
      "name": "Love's Dog Park"
    }
  },
  {
    "id": 1368785144,
    "name": "Hubbard's Scentral Park Dog Park",
    "latitude": 41.1570254,
    "longitude": -80.6016673,
    "state": "Ohio",
    "stateAbbr": "OH",
    "tags": {
      "access": "private",
      "leisure": "dog_park",
      "name": "Hubbard's Scentral Park Dog Park",
      "operator": "Hubbard Pet Resort & Spa"
    }
  },
  {
    "id": 1369704487,
    "name": "Dog Park",
    "latitude": 40.9049658,
    "longitude": -81.1383518,
    "state": "Ohio",
    "stateAbbr": "OH",
    "tags": {
      "leisure": "dog_park"
    }
  },
  {
    "id": 1378635712,
    "name": "Dog Park",
    "latitude": 39.2424686,
    "longitude": -84.29365,
    "state": "Ohio",
    "stateAbbr": "OH",
    "tags": {
      "access": "private",
      "leisure": "dog_park",
      "operator": "Arrowhead Apartments",
      "operator:type": "private"
    }
  },
  {
    "id": 1390239440,
    "name": "Dog Park",
    "latitude": 39.9962051,
    "longitude": -83.0449366,
    "state": "Ohio",
    "stateAbbr": "OH",
    "tags": {
      "access": "private",
      "leisure": "dog_park"
    }
  },
  {
    "id": 1391052088,
    "name": "Dog Park",
    "latitude": 41.4831137,
    "longitude": -81.7022339,
    "state": "Ohio",
    "stateAbbr": "OH",
    "tags": {
      "leisure": "dog_park"
    }
  },
  {
    "id": 1393067918,
    "name": "Dog Park",
    "latitude": 40.9682517,
    "longitude": -81.5506845,
    "state": "Ohio",
    "stateAbbr": "OH",
    "tags": {
      "leisure": "dog_park"
    }
  },
  {
    "id": 1395641329,
    "name": "Scioto Audubon Dog Park",
    "latitude": 39.945002,
    "longitude": -83.0021019,
    "state": "Ohio",
    "stateAbbr": "OH",
    "tags": {
      "access": "yes",
      "description": "small dog area",
      "dog": "unleashed",
      "leisure": "dog_park",
      "name": "Scioto Audubon Dog Park",
      "operator": "Metro Parks",
      "website": "https://www.metroparks.net/parks-and-trails/scioto-audubon/#pets"
    }
  },
  {
    "id": 1408629295,
    "name": "Dog Park",
    "latitude": 41.16731,
    "longitude": -81.4735744,
    "state": "Ohio",
    "stateAbbr": "OH",
    "tags": {
      "leisure": "dog_park"
    }
  },
  {
    "id": 1413435713,
    "name": "Dog Park",
    "latitude": 41.6284146,
    "longitude": -84.767087,
    "state": "Ohio",
    "stateAbbr": "OH",
    "tags": {
      "brand": "Love's",
      "brand:wikidata": "Q1872496",
      "leisure": "dog_park"
    }
  },
  {
    "id": 1413436323,
    "name": "Dog Park",
    "latitude": 41.1729453,
    "longitude": -83.652776,
    "state": "Ohio",
    "stateAbbr": "OH",
    "tags": {
      "brand": "Love's",
      "brand:wikidata": "Q1872496",
      "leisure": "dog_park"
    }
  },
  {
    "id": 1413436496,
    "name": "Dog Park",
    "latitude": 41.1071475,
    "longitude": -81.0500499,
    "state": "Ohio",
    "stateAbbr": "OH",
    "tags": {
      "brand": "Love's",
      "brand:wikidata": "Q1872496",
      "leisure": "dog_park"
    }
  },
  {
    "id": 1413436713,
    "name": "Dog Park",
    "latitude": 40.8546343,
    "longitude": -83.3000087,
    "state": "Ohio",
    "stateAbbr": "OH",
    "tags": {
      "brand": "Love's",
      "brand:wikidata": "Q1872496",
      "leisure": "dog_park"
    }
  },
  {
    "id": 1413436975,
    "name": "Dog Park",
    "latitude": 40.65265,
    "longitude": -82.5464397,
    "state": "Ohio",
    "stateAbbr": "OH",
    "tags": {
      "brand": "Love's",
      "brand:wikidata": "Q1872496",
      "leisure": "dog_park"
    }
  },
  {
    "id": 1413437272,
    "name": "Dog Park",
    "latitude": 40.3713808,
    "longitude": -83.7264019,
    "state": "Ohio",
    "stateAbbr": "OH",
    "tags": {
      "brand": "Love's",
      "brand:wikidata": "Q1872496",
      "leisure": "dog_park"
    }
  },
  {
    "id": 1413437412,
    "name": "Dog Park",
    "latitude": 40.2662411,
    "longitude": -84.186789,
    "state": "Ohio",
    "stateAbbr": "OH",
    "tags": {
      "brand": "Love's",
      "brand:wikidata": "Q1872496",
      "leisure": "dog_park"
    }
  },
  {
    "id": 1413438511,
    "name": "Dog Park",
    "latitude": 39.8929381,
    "longitude": -83.7218898,
    "state": "Ohio",
    "stateAbbr": "OH",
    "tags": {
      "brand": "Love's",
      "brand:wikidata": "Q1872496",
      "leisure": "dog_park"
    }
  },
  {
    "id": 1413438687,
    "name": "Dog Park",
    "latitude": 39.7330985,
    "longitude": -84.2098418,
    "state": "Ohio",
    "stateAbbr": "OH",
    "tags": {
      "brand": "Love's",
      "brand:wikidata": "Q1872496",
      "leisure": "dog_park"
    }
  },
  {
    "id": 1413438746,
    "name": "Dog Park",
    "latitude": 39.7166555,
    "longitude": -82.671189,
    "state": "Ohio",
    "stateAbbr": "OH",
    "tags": {
      "brand": "Love's",
      "brand:wikidata": "Q1872496",
      "leisure": "dog_park"
    }
  },
  {
    "id": 1413438898,
    "name": "Dog Park",
    "latitude": 39.6202992,
    "longitude": -83.6122824,
    "state": "Ohio",
    "stateAbbr": "OH",
    "tags": {
      "brand": "Love's",
      "brand:wikidata": "Q1872496",
      "leisure": "dog_park"
    }
  },
  {
    "id": 1413439346,
    "name": "Dog Park",
    "latitude": 39.5567386,
    "longitude": -82.9586334,
    "state": "Ohio",
    "stateAbbr": "OH",
    "tags": {
      "brand": "Love's",
      "brand:wikidata": "Q1872496",
      "leisure": "dog_park"
    }
  },
  {
    "id": 1413439560,
    "name": "Dog Park",
    "latitude": 38.7582352,
    "longitude": -81.6911387,
    "state": "Ohio",
    "stateAbbr": "OH",
    "tags": {
      "brand": "Love's",
      "brand:wikidata": "Q1872496",
      "leisure": "dog_park"
    }
  },
  {
    "id": 1417010208,
    "name": "Dog Park",
    "latitude": 40.47828,
    "longitude": -80.9181054,
    "state": "Ohio",
    "stateAbbr": "OH",
    "tags": {
      "leisure": "dog_park"
    }
  },
  {
    "id": 1417643739,
    "name": "Dog Park",
    "latitude": 40.8586713,
    "longitude": -82.2753832,
    "state": "Ohio",
    "stateAbbr": "OH",
    "tags": {
      "access": "permissive",
      "dog": "unleashed",
      "leisure": "dog_park",
      "operator": "The District"
    }
  },
  {
    "id": 1422201531,
    "name": "Dog Park",
    "latitude": 39.9082337,
    "longitude": -82.8361826,
    "state": "Ohio",
    "stateAbbr": "OH",
    "tags": {
      "leisure": "dog_park"
    }
  },
  {
    "id": 1422583387,
    "name": "Bark Park",
    "latitude": 40.0899333,
    "longitude": -83.0970464,
    "state": "Ohio",
    "stateAbbr": "OH",
    "tags": {
      "access": "private",
      "addr:city": "Dublin",
      "addr:housenumber": "6564",
      "addr:postcode": "43017",
      "addr:state": "OH",
      "addr:street": "Millridge Circle",
      "leisure": "dog_park",
      "name": "Bark Park",
      "operator": "Sawmill Ridge Apartments",
      "operator:type": "private"
    }
  },
  {
    "id": 1427964319,
    "name": "Dog Park",
    "latitude": 41.2747341,
    "longitude": -81.8311895,
    "state": "Ohio",
    "stateAbbr": "OH",
    "tags": {
      "access": "private",
      "leisure": "dog_park"
    }
  },
  {
    "id": 1428349523,
    "name": "Lake Loramie Dog Park",
    "latitude": 40.3792184,
    "longitude": -84.3581627,
    "state": "Ohio",
    "stateAbbr": "OH",
    "tags": {
      "access": "yes",
      "barrier": "fence",
      "leisure": "dog_park",
      "name": "Lake Loramie Dog Park",
      "operator": "Lake Loramie State Park",
      "operator:type": "government"
    }
  },
  {
    "id": 1430739179,
    "name": "Dog Park",
    "latitude": 41.3002969,
    "longitude": -82.9806439,
    "state": "Ohio",
    "stateAbbr": "OH",
    "tags": {
      "leisure": "dog_park"
    }
  },
  {
    "id": 1443848361,
    "name": "Dog Park",
    "latitude": 39.6628285,
    "longitude": -84.2461462,
    "state": "Ohio",
    "stateAbbr": "OH",
    "tags": {
      "leisure": "dog_park"
    }
  },
  {
    "id": 1460367971,
    "name": "Dog Park",
    "latitude": 41.3674935,
    "longitude": -81.9510351,
    "state": "Ohio",
    "stateAbbr": "OH",
    "tags": {
      "barrier": "fence",
      "leisure": "dog_park"
    }
  },
  {
    "id": 1471843334,
    "name": "Dog Park",
    "latitude": 39.1154136,
    "longitude": -84.4606402,
    "state": "Ohio",
    "stateAbbr": "OH",
    "tags": {
      "leisure": "dog_park"
    }
  },
  {
    "id": 1472868528,
    "name": "Dog Park",
    "latitude": 40.7748722,
    "longitude": -80.7599081,
    "state": "Ohio",
    "stateAbbr": "OH",
    "tags": {
      "leisure": "dog_park"
    }
  },
  {
    "id": 1479476559,
    "name": "Dog Park",
    "latitude": 39.1154956,
    "longitude": -84.5091134,
    "state": "Ohio",
    "stateAbbr": "OH",
    "tags": {
      "access": "private",
      "leisure": "dog_park",
      "operator": "The ALTO"
    }
  },
  {
    "id": 1481055049,
    "name": "Dog Park",
    "latitude": 39.1559172,
    "longitude": -84.4039926,
    "state": "Ohio",
    "stateAbbr": "OH",
    "tags": {
      "access": "customers",
      "leisure": "dog_park"
    }
  },
  {
    "id": 1490202781,
    "name": "Dog Park",
    "latitude": 40.1155161,
    "longitude": -83.0044567,
    "state": "Ohio",
    "stateAbbr": "OH",
    "tags": {
      "leisure": "dog_park"
    }
  },
  {
    "id": 1491308567,
    "name": "Avon Lake Dog Park",
    "latitude": 41.4860832,
    "longitude": -82.0406135,
    "state": "Ohio",
    "stateAbbr": "OH",
    "tags": {
      "access": "yes",
      "addr:city": "Avon Lake",
      "addr:housenumber": "33401",
      "addr:postcode": "44012",
      "addr:state": "oh",
      "addr:street": "Webber Road",
      "dog": "allowed",
      "email": "alrec@avonlake.org",
      "leisure": "dog_park",
      "name": "Avon Lake Dog Park",
      "operator": "City of Avon Lake",
      "phone": "+1-440-933-6141",
      "ref": "FXP5+GP Avon Lake, Ohio",
      "website": "https://avonlakeoh.myrec.com"
    }
  },
  {
    "id": 1492381476,
    "name": "Dog Park",
    "latitude": 38.443568,
    "longitude": -81.9612053,
    "state": "Ohio",
    "stateAbbr": "OH",
    "tags": {
      "access": "private",
      "leisure": "dog_park"
    }
  },
  {
    "id": 13905068,
    "name": "Cooperation Station Dog Park",
    "latitude": 41.3040271,
    "longitude": -80.7665,
    "state": "Ohio",
    "stateAbbr": "OH",
    "tags": {
      "leisure": "dog_park",
      "name": "Cooperation Station Dog Park",
      "type": "multipolygon"
    }
  },
  {
    "id": 16762719,
    "name": "Armleder Dog Park",
    "latitude": 39.1209131,
    "longitude": -84.4051314,
    "state": "Ohio",
    "stateAbbr": "OH",
    "tags": {
      "leisure": "dog_park",
      "lit": "no",
      "name": "Armleder Dog Park",
      "opening_hours": "dawn-dusk",
      "type": "multipolygon",
      "website": "https://www.greatparks.org/parks/otto-armleder-memorial-park/armleder-dog-park"
    }
  },
  {
    "id": 19177018,
    "name": "Doris Day Dog Park",
    "latitude": 39.1575402,
    "longitude": -84.5938915,
    "state": "Ohio",
    "stateAbbr": "OH",
    "tags": {
      "barrier": "fence",
      "leisure": "dog_park",
      "name": "Doris Day Dog Park",
      "type": "multipolygon"
    }
  },
  {
    "id": 19281637,
    "name": "Dog Park",
    "latitude": 39.1830095,
    "longitude": -84.1792345,
    "state": "Ohio",
    "stateAbbr": "OH",
    "tags": {
      "access": "private",
      "leisure": "dog_park",
      "type": "multipolygon"
    }
  }
]