[
  {
    "id": 3528709261,
    "name": "Dog Park",
    "latitude": 36.801473,
    "longitude": -75.9959956,
    "state": "Virginia",
    "stateAbbr": "VA",
    "tags": {
      "leisure": "dog_park"
    }
  },
  {
    "id": 4849920117,
    "name": "Springhouse BarkPark",
    "latitude": 37.1315936,
    "longitude": -76.5200388,
    "state": "Virginia",
    "stateAbbr": "VA",
    "tags": {
      "addr:city": "Newport News",
      "addr:postcode": "23602",
      "addr:state": "VA",
      "addr:street": "Split Rail Circle",
      "leisure": "dog_park",
      "name": "Springhouse BarkPark"
    }
  },
  {
    "id": 6073941089,
    "name": "Dog Park",
    "latitude": 37.5592769,
    "longitude": -77.4774839,
    "state": "Virginia",
    "stateAbbr": "VA",
    "tags": {
      "leisure": "dog_park"
    }
  },
  {
    "id": 6820721153,
    "name": "Dog Park",
    "latitude": 36.8560302,
    "longitude": -76.4505987,
    "state": "Virginia",
    "stateAbbr": "VA",
    "tags": {
      "leisure": "dog_park"
    }
  },
  {
    "id": 6974975377,
    "name": "Dog Beach",
    "latitude": 37.2923859,
    "longitude": -76.0130359,
    "state": "Virginia",
    "stateAbbr": "VA",
    "tags": {
      "leisure": "dog_park",
      "name": "Dog Beach"
    }
  },
  {
    "id": 8818937177,
    "name": "Dog Park",
    "latitude": 37.7144783,
    "longitude": -76.3792019,
    "state": "Virginia",
    "stateAbbr": "VA",
    "tags": {
      "leisure": "dog_park",
      "wheelchair": "yes"
    }
  },
  {
    "id": 9610950107,
    "name": "Dog Park",
    "latitude": 37.6995382,
    "longitude": -77.8708061,
    "state": "Virginia",
    "stateAbbr": "VA",
    "tags": {
      "leisure": "dog_park"
    }
  },
  {
    "id": 10286039208,
    "name": "Dog Park",
    "latitude": 36.7635777,
    "longitude": -76.5991129,
    "state": "Virginia",
    "stateAbbr": "VA",
    "tags": {
      "leisure": "dog_park"
    }
  },
  {
    "id": 10289804238,
    "name": "Dog Walk",
    "latitude": 37.6074306,
    "longitude": -76.4396178,
    "state": "Virginia",
    "stateAbbr": "VA",
    "tags": {
      "leisure": "dog_park",
      "name": "Dog Walk"
    }
  },
  {
    "id": 12547994786,
    "name": "Ocean View Dog Park",
    "latitude": 36.9485127,
    "longitude": -76.2592754,
    "state": "Virginia",
    "stateAbbr": "VA",
    "tags": {
      "addr:city": "Norfolk",
      "addr:housenumber": "176",
      "addr:postcode": "23503",
      "addr:state": "VA",
      "addr:street": "Maple Avenue",
      "leisure": "dog_park",
      "name": "Ocean View Dog Park"
    }
  },
  {
    "id": 12911298637,
    "name": "Dog Park",
    "latitude": 37.1391159,
    "longitude": -77.355395,
    "state": "Virginia",
    "stateAbbr": "VA",
    "tags": {
      "leisure": "dog_park"
    }
  },
  {
    "id": 13430448987,
    "name": "Dog Park",
    "latitude": 37.4693905,
    "longitude": -79.8119171,
    "state": "Virginia",
    "stateAbbr": "VA",
    "tags": {
      "leisure": "dog_park",
      "opening_hours": "24/7",
      "wheelchair": "yes"
    }
  },
  {
    "id": 70643416,
    "name": "Dog Park",
    "latitude": 37.2210621,
    "longitude": -80.4476757,
    "state": "Virginia",
    "stateAbbr": "VA",
    "tags": {
      "leisure": "dog_park"
    }
  },
  {
    "id": 202547172,
    "name": "Barker Field",
    "latitude": 37.5391077,
    "longitude": -77.4820658,
    "state": "Virginia",
    "stateAbbr": "VA",
    "tags": {
      "access": "yes",
      "barrier": "fence",
      "leisure": "dog_park",
      "name": "Barker Field",
      "small_dog": "separate"
    }
  },
  {
    "id": 236143257,
    "name": "Ruff House Dog Park",
    "latitude": 37.4478443,
    "longitude": -77.5803768,
    "state": "Virginia",
    "stateAbbr": "VA",
    "tags": {
      "leisure": "dog_park",
      "name": "Ruff House Dog Park",
      "wheelchair": "limited"
    }
  },
  {
    "id": 246542215,
    "name": "Large dog park",
    "latitude": 37.4062836,
    "longitude": -79.1839178,
    "state": "Virginia",
    "stateAbbr": "VA",
    "tags": {
      "barrier": "fence",
      "fence_type": "chain_link",
      "leisure": "dog_park",
      "name": "Large dog park",
      "surface": "grass"
    }
  },
  {
    "id": 254439105,
    "name": "Dog Park",
    "latitude": 37.061437,
    "longitude": -76.3675275,
    "state": "Virginia",
    "stateAbbr": "VA",
    "tags": {
      "leisure": "dog_park"
    }
  },
  {
    "id": 298621401,
    "name": "Church Hill Dog Park",
    "latitude": 37.5238806,
    "longitude": -77.4103864,
    "state": "Virginia",
    "stateAbbr": "VA",
    "tags": {
      "access": "yes",
      "leisure": "dog_park",
      "name": "Church Hill Dog Park",
      "wheelchair": "no"
    }
  },
  {
    "id": 335583208,
    "name": "Stockley Gardens Dog Park",
    "latitude": 36.8652036,
    "longitude": -76.2946706,
    "state": "Virginia",
    "stateAbbr": "VA",
    "tags": {
      "leisure": "dog_park",
      "name": "Stockley Gardens Dog Park"
    }
  },
  {
    "id": 384942827,
    "name": "Dog Park",
    "latitude": 36.7514901,
    "longitude": -76.2307744,
    "state": "Virginia",
    "stateAbbr": "VA",
    "tags": {
      "leisure": "dog_park"
    }
  },
  {
    "id": 399259524,
    "name": "Bea Arthur Dog Park",
    "latitude": 36.8533891,
    "longitude": -76.2998911,
    "state": "Virginia",
    "stateAbbr": "VA",
    "tags": {
      "access": "private",
      "leisure": "dog_park",
      "name": "Bea Arthur Dog Park"
    }
  },
  {
    "id": 402548634,
    "name": "Pups and Pints",
    "latitude": 36.7710924,
    "longitude": -76.0222807,
    "state": "Virginia",
    "stateAbbr": "VA",
    "tags": {
      "access": "yes",
      "addr:city": "Virginia Beach",
      "addr:housenumber": "2413",
      "addr:postcode": "23456",
      "addr:street": "London Bridge Road",
      "height": "29'",
      "leisure": "dog_park",
      "name": "Pups and Pints",
      "start_date": "1987"
    }
  },
  {
    "id": 528897934,
    "name": "Libbie Mill Dog Park",
    "latitude": 37.5887968,
    "longitude": -77.4961215,
    "state": "Virginia",
    "stateAbbr": "VA",
    "tags": {
      "leisure": "dog_park",
      "name": "Libbie Mill Dog Park"
    }
  },
  {
    "id": 541067951,
    "name": "Addison at Wyndham",
    "latitude": 37.684798,
    "longitude": -77.5928243,
    "state": "Virginia",
    "stateAbbr": "VA",
    "tags": {
      "description": "Dog Park for Addison at Wyndham community residents",
      "leisure": "dog_park",
      "name": "Addison at Wyndham"
    }
  },
  {
    "id": 545083434,
    "name": "Pole Green Dog Park",
    "latitude": 37.6440789,
    "longitude": -77.3049314,
    "state": "Virginia",
    "stateAbbr": "VA",
    "tags": {
      "leisure": "dog_park",
      "name": "Pole Green Dog Park",
      "wheelchair": "yes"
    }
  },
  {
    "id": 610884427,
    "name": "Sparky's Run Dog Park",
    "latitude": 37.1410387,
    "longitude": -80.5424288,
    "state": "Virginia",
    "stateAbbr": "VA",
    "tags": {
      "leisure": "dog_park",
      "name": "Sparky's Run Dog Park"
    }
  },
  {
    "id": 636070810,
    "name": "Dog Park",
    "latitude": 37.4159842,
    "longitude": -79.91429,
    "state": "Virginia",
    "stateAbbr": "VA",
    "tags": {
      "leisure": "dog_park"
    }
  },
  {
    "id": 637069497,
    "name": "Western Branch Park - Dog Park",
    "latitude": 36.8188741,
    "longitude": -76.4243391,
    "state": "Virginia",
    "stateAbbr": "VA",
    "tags": {
      "barrier": "fence",
      "leisure": "dog_park",
      "name": "Western Branch Park - Dog Park",
      "opening_hours": "sunrise-sunset"
    }
  },
  {
    "id": 661158623,
    "name": "Dog Park",
    "latitude": 36.7233797,
    "longitude": -76.3450874,
    "state": "Virginia",
    "stateAbbr": "VA",
    "tags": {
      "barrier": "fence",
      "leisure": "dog_park",
      "wheelchair": "yes"
    }
  },
  {
    "id": 678061687,
    "name": "Dog Run",
    "latitude": 37.6103526,
    "longitude": -76.4380069,
    "state": "Virginia",
    "stateAbbr": "VA",
    "tags": {
      "leisure": "dog_park",
      "name": "Dog Run"
    }
  },
  {
    "id": 686723721,
    "name": "Dog Park",
    "latitude": 37.5606766,
    "longitude": -77.4855308,
    "state": "Virginia",
    "stateAbbr": "VA",
    "tags": {
      "leisure": "dog_park"
    }
  },
  {
    "id": 693859417,
    "name": "Dog Park",
    "latitude": 36.8529399,
    "longitude": -76.4706232,
    "state": "Virginia",
    "stateAbbr": "VA",
    "tags": {
      "leisure": "dog_park"
    }
  },
  {
    "id": 694831441,
    "name": "Dog Park",
    "latitude": 37.6464742,
    "longitude": -77.6132468,
    "state": "Virginia",
    "stateAbbr": "VA",
    "tags": {
      "leisure": "dog_park"
    }
  },
  {
    "id": 739201244,
    "name": "Colonial Place Dog Park",
    "latitude": 36.8833656,
    "longitude": -76.2847103,
    "state": "Virginia",
    "stateAbbr": "VA",
    "tags": {
      "leisure": "dog_park",
      "name": "Colonial Place Dog Park"
    }
  },
  {
    "id": 745108607,
    "name": "Dog Park",
    "latitude": 37.2886075,
    "longitude": -76.0109637,
    "state": "Virginia",
    "stateAbbr": "VA",
    "tags": {
      "leisure": "dog_park"
    }
  },
  {
    "id": 761589495,
    "name": "Dog Park",
    "latitude": 37.5172389,
    "longitude": -77.4058301,
    "state": "Virginia",
    "stateAbbr": "VA",
    "tags": {
      "leisure": "dog_park"
    }
  },
  {
    "id": 787012801,
    "name": "Dorey Dog Park",
    "latitude": 37.4607412,
    "longitude": -77.339432,
    "state": "Virginia",
    "stateAbbr": "VA",
    "tags": {
      "addr:city": "Henrico",
      "addr:housenumber": "7399",
      "addr:postcode": "23231",
      "addr:state": "VA",
      "addr:street": "Dorey Park Drive",
      "leisure": "dog_park",
      "name": "Dorey Dog Park"
    }
  },
  {
    "id": 827309274,
    "name": "Fido Field Dog Park",
    "latitude": 37.0861817,
    "longitude": -76.5323027,
    "state": "Virginia",
    "stateAbbr": "VA",
    "tags": {
      "access": "customers",
      "leisure": "dog_park",
      "name": "Fido Field Dog Park",
      "opening_hours": "sunrise-21:00",
      "website": "https://www.nngov.com/898/Fido-Field-Dog-Park"
    }
  },
  {
    "id": 845846001,
    "name": "Dog Park",
    "latitude": 37.7534633,
    "longitude": -77.4342147,
    "state": "Virginia",
    "stateAbbr": "VA",
    "tags": {
      "addr:postcode": "23005",
      "addr:street": "Taylor Complex Lane",
      "leisure": "dog_park"
    }
  },
  {
    "id": 911285478,
    "name": "Dog Park",
    "latitude": 37.1105728,
    "longitude": -76.4904197,
    "state": "Virginia",
    "stateAbbr": "VA",
    "tags": {
      "leisure": "dog_park"
    }
  },
  {
    "id": 911653102,
    "name": "Bark Park",
    "latitude": 36.9760985,
    "longitude": -76.6281684,
    "state": "Virginia",
    "stateAbbr": "VA",
    "tags": {
      "leisure": "dog_park",
      "name": "Bark Park",
      "website": "https://www.windsorcastlepark.com/barkpark.html"
    }
  },
  {
    "id": 937331013,
    "name": "Dog Park",
    "latitude": 36.7558924,
    "longitude": -76.0678576,
    "state": "Virginia",
    "stateAbbr": "VA",
    "tags": {
      "access": "private",
      "barrier": "fence",
      "leisure": "dog_park",
      "surface": "mulch"
    }
  },
  {
    "id": 944476637,
    "name": "Dog Park",
    "latitude": 37.9399455,
    "longitude": -75.3595598,
    "state": "Virginia",
    "stateAbbr": "VA",
    "tags": {
      "leisure": "dog_park"
    }
  },
  {
    "id": 995311266,
    "name": "Dog Park",
    "latitude": 37.2261141,
    "longitude": -80.4455812,
    "state": "Virginia",
    "stateAbbr": "VA",
    "tags": {
      "access": "private",
      "barrier": "fence",
      "description": "Resident dog park (>25lb large dogs)",
      "landcover": "grass",
      "leisure": "dog_park"
    }
  },
  {
    "id": 1014024024,
    "name": "Dog Park",
    "latitude": 36.8613187,
    "longitude": -76.486894,
    "state": "Virginia",
    "stateAbbr": "VA",
    "tags": {
      "leisure": "dog_park"
    }
  },
  {
    "id": 1021484451,
    "name": "Dog Park",
    "latitude": 37.5495995,
    "longitude": -77.4720228,
    "state": "Virginia",
    "stateAbbr": "VA",
    "tags": {
      "access": "private",
      "leisure": "dog_park"
    }
  },
  {
    "id": 1037171457,
    "name": "Phideaux Field",
    "latitude": 37.5198994,
    "longitude": -77.481147,
    "state": "Virginia",
    "stateAbbr": "VA",
    "tags": {
      "access": "yes",
      "leisure": "dog_park",
      "name": "Phideaux Field",
      "operator": "Forest Hill Presbyterian Church",
      "operator:type": "religious"
    }
  },
  {
    "id": 1051583892,
    "name": "Dog Park",
    "latitude": 37.5218437,
    "longitude": -77.5196562,
    "state": "Virginia",
    "stateAbbr": "VA",
    "tags": {
      "leisure": "dog_park"
    }
  },
  {
    "id": 1052186651,
    "name": "Northside Dog Park",
    "latitude": 37.5982213,
    "longitude": -77.4410963,
    "state": "Virginia",
    "stateAbbr": "VA",
    "tags": {
      "access": "yes",
      "leisure": "dog_park",
      "name": "Northside Dog Park",
      "operator:type": "government"
    }
  },
  {
    "id": 1052320039,
    "name": "11 North Dog Park",
    "latitude": 37.5530501,
    "longitude": -77.370591,
    "state": "Virginia",
    "stateAbbr": "VA",
    "tags": {
      "leisure": "dog_park",
      "name": "11 North Dog Park"
    }
  },
  {
    "id": 1053432445,
    "name": "Dog Park",
    "latitude": 37.5171811,
    "longitude": -77.5143068,
    "state": "Virginia",
    "stateAbbr": "VA",
    "tags": {
      "leisure": "dog_park"
    }
  },
  {
    "id": 1055784498,
    "name": "Dog Park",
    "latitude": 36.8515872,
    "longitude": -76.2892648,
    "state": "Virginia",
    "stateAbbr": "VA",
    "tags": {
      "leisure": "dog_park"
    }
  },
  {
    "id": 1062411945,
    "name": "Dog Park",
    "latitude": 36.8361469,
    "longitude": -75.9913581,
    "state": "Virginia",
    "stateAbbr": "VA",
    "tags": {
      "leisure": "dog_park"
    }
  },
  {
    "id": 1081637286,
    "name": "Dog Park",
    "latitude": 36.9775974,
    "longitude": -77.3949673,
    "state": "Virginia",
    "stateAbbr": "VA",
    "tags": {
      "leisure": "dog_park"
    }
  },
  {
    "id": 1082742641,
    "name": "Dog Park",
    "latitude": 37.4094656,
    "longitude": -77.6638027,
    "state": "Virginia",
    "stateAbbr": "VA",
    "tags": {
      "access": "yes",
      "leisure": "dog_park"
    }
  },
  {
    "id": 1086557257,
    "name": "Dog Park",
    "latitude": 37.3012504,
    "longitude": -76.4699973,
    "state": "Virginia",
    "stateAbbr": "VA",
    "tags": {
      "leisure": "dog_park"
    }
  },
  {
    "id": 1092249455,
    "name": "Dog Park",
    "latitude": 37.343916,
    "longitude": -76.276515,
    "state": "Virginia",
    "stateAbbr": "VA",
    "tags": {
      "leisure": "dog_park"
    }
  },
  {
    "id": 1095763764,
    "name": "Outdoor Pet Recreation Area",
    "latitude": 36.8030552,
    "longitude": -76.1893764,
    "state": "Virginia",
    "stateAbbr": "VA",
    "tags": {
      "description": "Fenced-in dog park",
      "leisure": "dog_park",
      "name": "Outdoor Pet Recreation Area",
      "operator": "Founder's Inn",
      "surface": "grass"
    }
  },
  {
    "id": 1116872134,
    "name": "Dog Park",
    "latitude": 37.3159419,
    "longitude": -76.7031181,
    "state": "Virginia",
    "stateAbbr": "VA",
    "tags": {
      "leisure": "dog_park"
    }
  },
  {
    "id": 1117344011,
    "name": "Dog Park",
    "latitude": 36.8480935,
    "longitude": -76.4671936,
    "state": "Virginia",
    "stateAbbr": "VA",
    "tags": {
      "leisure": "dog_park"
    }
  },
  {
    "id": 1121505590,
    "name": "Dog Park",
    "latitude": 37.6919288,
    "longitude": -77.4728269,
    "state": "Virginia",
    "stateAbbr": "VA",
    "tags": {
      "leisure": "dog_park",
      "wheelchair": "no"
    }
  },
  {
    "id": 1196025496,
    "name": "Dog Park",
    "latitude": 36.8966662,
    "longitude": -76.4269302,
    "state": "Virginia",
    "stateAbbr": "VA",
    "tags": {
      "leisure": "dog_park"
    }
  },
  {
    "id": 1213101945,
    "name": "Dog Park",
    "latitude": 37.5157024,
    "longitude": -77.6816301,
    "state": "Virginia",
    "stateAbbr": "VA",
    "tags": {
      "access": "private",
      "leisure": "dog_park"
    }
  },
  {
    "id": 1303144377,
    "name": "Ruff Canine Club",
    "latitude": 37.5748612,
    "longitude": -77.4686865,
    "state": "Virginia",
    "stateAbbr": "VA",
    "tags": {
      "addr:city": "Richmond",
      "addr:housenumber": "1924",
      "addr:postcode": "23230",
      "addr:state": "VA",
      "addr:street": "Ellen Road",
      "leisure": "dog_park",
      "name": "Ruff Canine Club",
      "operator": "Unknown",
      "website": "https://www.ruffcanineclub.com/"
    }
  },
  {
    "id": 1329528547,
    "name": "Dog Park",
    "latitude": 37.1605273,
    "longitude": -80.4307238,
    "state": "Virginia",
    "stateAbbr": "VA",
    "tags": {
      "leisure": "dog_park"
    }
  },
  {
    "id": 1336945144,
    "name": "Dog Park",
    "latitude": 37.41818,
    "longitude": -79.1476763,
    "state": "Virginia",
    "stateAbbr": "VA",
    "tags": {
      "access": "private",
      "leisure": "dog_park",
      "private": "Gish Flats"
    }
  },
  {
    "id": 1336979991,
    "name": "Dog Park",
    "latitude": 36.7964208,
    "longitude": -75.9916832,
    "state": "Virginia",
    "stateAbbr": "VA",
    "tags": {
      "access": "customers",
      "leisure": "dog_park"
    }
  },
  {
    "id": 1365814092,
    "name": "Dog Park",
    "latitude": 37.2234787,
    "longitude": -80.4405278,
    "state": "Virginia",
    "stateAbbr": "VA",
    "tags": {
      "access": "private",
      "barrier": "fence",
      "fence_type": "chain_link",
      "leisure": "dog_park",
      "lit": "yes",
      "surface": "grass"
    }
  },
  {
    "id": 1371381713,
    "name": "Dog Park",
    "latitude": 37.6021293,
    "longitude": -77.6561456,
    "state": "Virginia",
    "stateAbbr": "VA",
    "tags": {
      "access": "private",
      "leisure": "dog_park",
      "surface": "artificial_turf"
    }
  },
  {
    "id": 1377345203,
    "name": "Paw Park",
    "latitude": 36.6354233,
    "longitude": -79.8271326,
    "state": "Virginia",
    "stateAbbr": "VA",
    "tags": {
      "addr:city": "Axton",
      "addr:housenumber": "1000",
      "addr:postcode": "24054",
      "addr:state": "VA",
      "addr:street": "Irisburg Road",
      "leisure": "dog_park",
      "membership": "yes",
      "name": "Paw Park",
      "opening_hours": "0700-dusk",
      "website": "https://www.smithriversportscomplex.com/content/smithriversportscomplex/uploads/spca_smith_river_paw_park_brochure.pdf"
    }
  },
  {
    "id": 1385920532,
    "name": "Dog Park",
    "latitude": 37.9939346,
    "longitude": -78.4981523,
    "state": "Virginia",
    "stateAbbr": "VA",
    "tags": {
      "access": "private",
      "leisure": "dog_park"
    }
  },
  {
    "id": 1413440789,
    "name": "Dog Park",
    "latitude": 37.5004268,
    "longitude": -77.0907806,
    "state": "Virginia",
    "stateAbbr": "VA",
    "tags": {
      "brand": "Love's",
      "brand:wikidata": "Q1872496",
      "leisure": "dog_park"
    }
  },
  {
    "id": 1413441900,
    "name": "Dog Park",
    "latitude": 36.7488075,
    "longitude": -78.0991039,
    "state": "Virginia",
    "stateAbbr": "VA",
    "tags": {
      "brand": "Love's",
      "brand:wikidata": "Q1872496",
      "leisure": "dog_park"
    }
  },
  {
    "id": 1413442006,
    "name": "Dog Park",
    "latitude": 36.6051441,
    "longitude": -77.561188,
    "state": "Virginia",
    "stateAbbr": "VA",
    "tags": {
      "brand": "Love's",
      "brand:wikidata": "Q1872496",
      "leisure": "dog_park"
    }
  },
  {
    "id": 1417047860,
    "name": "Dog Park",
    "latitude": 37.2389874,
    "longitude": -80.3955859,
    "state": "Virginia",
    "stateAbbr": "VA",
    "tags": {
      "leisure": "dog_park"
    }
  },
  {
    "id": 1443984445,
    "name": "Dog Park",
    "latitude": 37.5075737,
    "longitude": -77.534549,
    "state": "Virginia",
    "stateAbbr": "VA",
    "tags": {
      "description": "Dog park for residents of the nearby apartments",
      "leisure": "dog_park"
    }
  },
  {
    "id": 1462443363,
    "name": "Center West Dog Park",
    "latitude": 37.5056551,
    "longitude": -77.6937228,
    "state": "Virginia",
    "stateAbbr": "VA",
    "tags": {
      "access": "private",
      "leisure": "dog_park",
      "name": "Center West Dog Park",
      "operator": "Center West"
    }
  },
  {
    "id": 1463257174,
    "name": "Dog Park",
    "latitude": 36.7365313,
    "longitude": -76.0075743,
    "state": "Virginia",
    "stateAbbr": "VA",
    "tags": {
      "leisure": "dog_park"
    }
  },
  {
    "id": 1483868702,
    "name": "Dog Park",
    "latitude": 37.5500064,
    "longitude": -77.4376171,
    "state": "Virginia",
    "stateAbbr": "VA",
    "tags": {
      "access": "private",
      "leisure": "dog_park"
    }
  },
  {
    "id": 4638427295,
    "name": "Fido Dog Park",
    "latitude": 39.472458,
    "longitude": -80.1257742,
    "state": "Virginia",
    "stateAbbr": "VA",
    "tags": {
      "leisure": "dog_park",
      "name": "Fido Dog Park"
    }
  },
  {
    "id": 334104486,
    "name": "Ruth Rafferty Peyton Dog Park",
    "latitude": 38.3409622,
    "longitude": -81.6170731,
    "state": "Virginia",
    "stateAbbr": "VA",
    "tags": {
      "leisure": "dog_park",
      "name": "Ruth Rafferty Peyton Dog Park"
    }
  },
  {
    "id": 851656650,
    "name": "Clarksburg Dog Park",
    "latitude": 39.2696744,
    "longitude": -80.3602877,
    "state": "Virginia",
    "stateAbbr": "VA",
    "tags": {
      "leisure": "dog_park",
      "name": "Clarksburg Dog Park"
    }
  },
  {
    "id": 1028560830,
    "name": "Dog Park",
    "latitude": 38.3653445,
    "longitude": -81.5870798,
    "state": "Virginia",
    "stateAbbr": "VA",
    "tags": {
      "leisure": "dog_park"
    }
  },
  {
    "id": 1075914189,
    "name": "Dog Park",
    "latitude": 38.3613359,
    "longitude": -81.674695,
    "state": "Virginia",
    "stateAbbr": "VA",
    "tags": {
      "access": "yes",
      "leisure": "dog_park",
      "website": "https://parks.cityofsouthcharleston.com/joplin/"
    }
  }
]